[
  {
    "id": "comfort-women-column-of-strength",
    "name": "\"Comfort Women\" Column of Strength",
    "grounding": "grounded_geo",
    "type": "artwork",
    "neighborhood": "chinatown",
    "lat": 37.7918138,
    "lon": -122.4044868,
    "description": ""
  },
  {
    "id": "crab-topiary-crab-statue",
    "name": "\"Crab Topiary\" Crab Statue",
    "grounding": "grounded_geo",
    "type": "artwork",
    "neighborhood": "north-beach",
    "lat": 37.8085082,
    "lon": -122.410202,
    "description": ""
  },
  {
    "id": "111-minna",
    "name": "111 Minna",
    "grounding": "grounded_geo",
    "type": "gallery",
    "neighborhood": "rincon-hill",
    "lat": 37.7874165,
    "lon": -122.3993312,
    "description": ""
  },
  {
    "id": "15th-avenue-steps",
    "name": "15th Avenue Steps",
    "grounding": "grounded_geo",
    "type": "park",
    "neighborhood": "golden-gate-heights",
    "lat": 37.7595558,
    "lon": -122.4723501,
    "description": ""
  },
  {
    "id": "23rd-street-studio",
    "name": "23rd Street Studio",
    "grounding": "grounded_geo",
    "type": "arts_centre",
    "neighborhood": "noe-valley",
    "lat": 37.7532761,
    "lon": -122.4263735,
    "description": ""
  },
  {
    "id": "24th-york-mini-park",
    "name": "24th & York Mini Park",
    "grounding": "grounded_geo",
    "type": "park",
    "neighborhood": "the-mission",
    "lat": 37.7530704,
    "lon": -122.4085977,
    "description": ""
  },
  {
    "id": "29th-diamond-open-space",
    "name": "29th & Diamond Open Space",
    "grounding": "grounded_geo",
    "type": "park",
    "neighborhood": "diamond-heights",
    "lat": 37.7436523,
    "lon": -122.4352533,
    "description": ""
  },
  {
    "id": "3-way-russian-hill-view",
    "name": "3-way Russian Hill view",
    "grounding": "grounded_geo",
    "type": "viewpoint",
    "neighborhood": "russian-hill",
    "lat": 37.798486,
    "lon": -122.4172351,
    "description": ""
  },
  {
    "id": "41ross",
    "name": "41ross",
    "grounding": "grounded_geo",
    "type": "gallery",
    "neighborhood": "chinatown",
    "lat": 37.7955742,
    "lon": -122.4074209,
    "description": ""
  },
  {
    "id": "50-beale-street-plaza",
    "name": "50 Beale Street Plaza",
    "grounding": "grounded_geo",
    "type": "park",
    "neighborhood": "financial-district",
    "lat": 37.7916178,
    "lon": -122.3969783,
    "description": ""
  },
  {
    "id": "63-bluxome-gallery",
    "name": "63 Bluxome Gallery",
    "grounding": "grounded_geo",
    "type": "gallery",
    "neighborhood": "south-beach",
    "lat": 37.7765248,
    "lon": -122.3970433,
    "description": ""
  },
  {
    "id": "688-gallery",
    "name": "688 Gallery",
    "grounding": "grounded_geo",
    "type": "gallery",
    "neighborhood": "lower-nob-hill",
    "lat": 37.7889435,
    "lon": -122.4116382,
    "description": ""
  },
  {
    "id": "abundance",
    "name": "Abundance",
    "grounding": "grounded_geo",
    "type": "artwork",
    "neighborhood": "outer-sunset",
    "lat": 37.7512918,
    "lon": -122.4978888,
    "description": ""
  },
  {
    "id": "acci-n-latina",
    "name": "Acción Latina",
    "grounding": "grounded_geo",
    "type": "arts_centre",
    "neighborhood": "the-mission",
    "lat": 37.7527723,
    "lon": -122.4113221,
    "description": ""
  },
  {
    "id": "adahs-stairway-garden",
    "name": "Adah's Stairway Garden",
    "grounding": "grounded_geo",
    "type": "park",
    "neighborhood": "duboce-triangle",
    "lat": 37.7700916,
    "lon": -122.438917,
    "description": ""
  },
  {
    "id": "adam-rodgers-park",
    "name": "Adam Rodgers Park",
    "grounding": "grounded_geo",
    "type": "park",
    "neighborhood": "bayview",
    "lat": 37.7310335,
    "lon": -122.3839421,
    "description": ""
  },
  {
    "id": "adobe-books-and-arts-cooperative",
    "name": "Adobe Books and Arts Cooperative",
    "grounding": "grounded_geo",
    "type": "gallery",
    "neighborhood": "the-mission",
    "lat": 37.7525786,
    "lon": -122.4148076,
    "description": ""
  },
  {
    "id": "african-american-art-culture-complex",
    "name": "African American Art & Culture Complex",
    "grounding": "grounded_geo",
    "type": "arts_centre",
    "neighborhood": "hayes-valley",
    "lat": 37.7781952,
    "lon": -122.4292501,
    "description": ""
  },
  {
    "id": "african-region-viewpoint",
    "name": "African Region Viewpoint",
    "grounding": "grounded_geo",
    "type": "viewpoint",
    "neighborhood": "parkside",
    "lat": 37.7317491,
    "lon": -122.5055287,
    "description": ""
  },
  {
    "id": "african-savanna-viewpoint",
    "name": "African Savanna Viewpoint",
    "grounding": "grounded_geo",
    "type": "viewpoint",
    "neighborhood": "parkside",
    "lat": 37.7328972,
    "lon": -122.5046833,
    "description": ""
  },
  {
    "id": "after-hours-returns",
    "name": "After Hours Returns",
    "grounding": "grounded_geo",
    "type": "library_dropoff",
    "neighborhood": "inner-richmond",
    "lat": 37.7820098,
    "lon": -122.4682734,
    "description": ""
  },
  {
    "id": "agua-vista-park",
    "name": "Agua Vista Park",
    "grounding": "grounded_geo",
    "type": "park",
    "neighborhood": "pier-70",
    "lat": 37.7661934,
    "lon": -122.3861266,
    "description": ""
  },
  {
    "id": "als-park",
    "name": "Al's Park",
    "grounding": "grounded_geo",
    "type": "park",
    "neighborhood": "castro",
    "lat": 37.7594665,
    "lon": -122.445436,
    "description": ""
  },
  {
    "id": "alamo-square",
    "name": "Alamo Square",
    "grounding": "grounded_geo",
    "type": "park",
    "neighborhood": "alamo-square",
    "lat": 37.7763606,
    "lon": -122.4346963,
    "description": ""
  },
  {
    "id": "alamo-square-historic-district",
    "name": "Alamo Square Historic District",
    "grounding": "grounded_geo",
    "type": "attraction",
    "neighborhood": "alamo-square",
    "lat": 37.7771517,
    "lon": -122.4349713,
    "description": ""
  },
  {
    "id": "alamo-square-park",
    "name": "Alamo Square Park",
    "grounding": "grounded_geo",
    "type": "park",
    "neighborhood": "alamo-square",
    "lat": 37.7762,
    "lon": -122.4346,
    "description": "The Painted Ladies panorama, steep hill, Victorian row houses, popular with tourists and dog walkers"
  },
  {
    "id": "alcatraz",
    "name": "Alcatraz",
    "grounding": "grounded_geo",
    "type": "viewpoint",
    "neighborhood": "fishermans-wharf",
    "lat": 37.8252625,
    "lon": -122.421361,
    "description": ""
  },
  {
    "id": "alcatraz-island",
    "name": "Alcatraz Island",
    "grounding": "grounded_geo",
    "type": "historic",
    "neighborhood": "fishermans-wharf",
    "lat": 37.8267,
    "lon": -122.423,
    "description": "Former federal penitentiary, ferry from Pier 33, bay views, seabirds"
  },
  {
    "id": "alcatraz-and-hyde-st-pier-ships",
    "name": "Alcatraz and Hyde St Pier ships",
    "grounding": "grounded_geo",
    "type": "viewpoint",
    "neighborhood": "russian-hill",
    "lat": 37.8035004,
    "lon": -122.4216801,
    "description": ""
  },
  {
    "id": "alice-chalmers-playground",
    "name": "Alice Chalmers Playground",
    "grounding": "grounded_geo",
    "type": "park",
    "neighborhood": "outer-mission",
    "lat": 37.7098257,
    "lon": -122.4466811,
    "description": ""
  },
  {
    "id": "alioto-mini-park",
    "name": "Alioto Mini Park",
    "grounding": "grounded_geo",
    "type": "park",
    "neighborhood": "the-mission",
    "lat": 37.7589211,
    "lon": -122.418241,
    "description": ""
  },
  {
    "id": "allyne-park",
    "name": "Allyne Park",
    "grounding": "grounded_geo",
    "type": "park",
    "neighborhood": "cow-hollow",
    "lat": 37.7974664,
    "lon": -122.4276609,
    "description": ""
  },
  {
    "id": "alta-plaza-park",
    "name": "Alta Plaza Park",
    "grounding": "grounded_geo",
    "type": "park",
    "neighborhood": "pacific-heights",
    "lat": 37.7911802,
    "lon": -122.4376941,
    "description": ""
  },
  {
    "id": "alter-space",
    "name": "Alter Space",
    "grounding": "grounded_geo",
    "type": "gallery",
    "neighborhood": "soma",
    "lat": 37.7770557,
    "lon": -122.4108319,
    "description": ""
  },
  {
    "id": "andrea-schwartz-gallery",
    "name": "Andrea Schwartz Gallery",
    "grounding": "grounded_geo",
    "type": "gallery",
    "neighborhood": "south-beach",
    "lat": 37.7791827,
    "lon": -122.3973191,
    "description": ""
  },
  {
    "id": "andrew-furuseth",
    "name": "Andrew Furuseth",
    "grounding": "grounded_geo",
    "type": "artwork",
    "neighborhood": "rincon-hill",
    "lat": 37.7864767,
    "lon": -122.3927888,
    "description": ""
  },
  {
    "id": "angel-adams-and-gary-snyder",
    "name": "Angel Adams and Gary Snyder",
    "grounding": "grounded_geo",
    "type": "artwork",
    "neighborhood": "rincon-hill",
    "lat": 37.7847878,
    "lon": -122.3975288,
    "description": ""
  },
  {
    "id": "angelo-rossi-park",
    "name": "Angelo Rossi Park",
    "grounding": "grounded_geo",
    "type": "park",
    "neighborhood": "jordan-park",
    "lat": 37.7788208,
    "lon": -122.4574369,
    "description": ""
  },
  {
    "id": "animal-mural",
    "name": "Animal Mural",
    "grounding": "grounded_geo",
    "type": "artwork",
    "neighborhood": "excelsior",
    "lat": 37.723633,
    "lon": -122.423338,
    "description": ""
  },
  {
    "id": "anne-bremer-memorial-library",
    "name": "Anne Bremer Memorial Library",
    "grounding": "grounded_geo",
    "type": "library",
    "neighborhood": "russian-hill",
    "lat": 37.8035397,
    "lon": -122.4169157,
    "description": ""
  },
  {
    "id": "antique-vibrator-museum",
    "name": "Antique Vibrator Museum",
    "grounding": "grounded_geo",
    "type": "museum",
    "neighborhood": "nob-hill",
    "lat": 37.7918896,
    "lon": -122.4207653,
    "description": ""
  },
  {
    "id": "aptos-playground",
    "name": "Aptos Playground",
    "grounding": "grounded_geo",
    "type": "park",
    "neighborhood": "mount-davidson-manor",
    "lat": 37.7284428,
    "lon": -122.4664882,
    "description": ""
  },
  {
    "id": "aquatic-park",
    "name": "Aquatic Park",
    "grounding": "grounded_geo",
    "type": "waterfront",
    "neighborhood": "fisherman-s-wharf",
    "lat": 37.8087,
    "lon": -122.4237,
    "description": "Protected cove, cold-water swimmers, bocce ball, Maritime Museum, cable car terminus nearby"
  },
  {
    "id": "aquatic-park-historic-district",
    "name": "Aquatic Park Historic District",
    "grounding": "grounded_geo",
    "type": "park",
    "neighborhood": "fishermans-wharf",
    "lat": 37.8070039,
    "lon": -122.4234618,
    "description": ""
  },
  {
    "id": "argonne-community-garden",
    "name": "Argonne Community Garden",
    "grounding": "grounded_geo",
    "type": "park",
    "neighborhood": "inner-richmond",
    "lat": 37.7739909,
    "lon": -122.4740745,
    "description": ""
  },
  {
    "id": "argonne-playground",
    "name": "Argonne Playground",
    "grounding": "grounded_geo",
    "type": "park",
    "neighborhood": "inner-richmond",
    "lat": 37.7794183,
    "lon": -122.4777096,
    "description": ""
  },
  {
    "id": "armillary-sphere",
    "name": "Armillary Sphere",
    "grounding": "grounded_geo",
    "type": "artwork",
    "neighborhood": "north-of-panhandle",
    "lat": 37.7761732,
    "lon": -122.450744,
    "description": ""
  },
  {
    "id": "art-panels",
    "name": "Art Panels",
    "grounding": "grounded_geo",
    "type": "artwork",
    "neighborhood": "ocean-view",
    "lat": 37.7141895,
    "lon": -122.466024,
    "description": ""
  },
  {
    "id": "artificial-rock",
    "name": "Artificial Rock",
    "grounding": "grounded_geo",
    "type": "artwork",
    "neighborhood": "inner-richmond",
    "lat": 37.7713104,
    "lon": -122.469518,
    "description": ""
  },
  {
    "id": "athens-avalon-greens-terace",
    "name": "Athens Avalon Greens Terace",
    "grounding": "grounded_geo",
    "type": "park",
    "neighborhood": "excelsior",
    "lat": 37.7249694,
    "lon": -122.4259715,
    "description": ""
  },
  {
    "id": "audium",
    "name": "Audium",
    "grounding": "grounded_geo",
    "type": "theatre",
    "neighborhood": "japantown",
    "lat": 37.7884216,
    "lon": -122.4242035,
    "description": ""
  },
  {
    "id": "august-hall",
    "name": "August Hall",
    "grounding": "grounded_geo",
    "type": "theatre",
    "neighborhood": "union-square",
    "lat": 37.7875876,
    "lon": -122.4097872,
    "description": ""
  },
  {
    "id": "aurora",
    "name": "Aurora",
    "grounding": "grounded_geo",
    "type": "artwork",
    "neighborhood": "embarcadero",
    "lat": 37.792517,
    "lon": -122.3915188,
    "description": ""
  },
  {
    "id": "autodesk-gallery",
    "name": "Autodesk Gallery",
    "grounding": "grounded_geo",
    "type": "gallery",
    "neighborhood": "embarcadero",
    "lat": 37.794149,
    "lon": -122.394787,
    "description": ""
  },
  {
    "id": "avenue-12-gallery",
    "name": "Avenue 12 Gallery",
    "grounding": "grounded_geo",
    "type": "gallery",
    "neighborhood": "inner-richmond",
    "lat": 37.7862599,
    "lon": -122.4712443,
    "description": ""
  },
  {
    "id": "bats-improv",
    "name": "BATS Improv",
    "grounding": "grounded_geo",
    "type": "theatre",
    "neighborhood": "marina",
    "lat": 37.8065143,
    "lon": -122.4317704,
    "description": ""
  },
  {
    "id": "baden-joost-mini-park",
    "name": "Baden-Joost Mini Park",
    "grounding": "grounded_geo",
    "type": "park",
    "neighborhood": "sunnyside",
    "lat": 37.7327466,
    "lon": -122.4408553,
    "description": ""
  },
  {
    "id": "baker-broderick-mini-park",
    "name": "Baker & Broderick Mini Park",
    "grounding": "grounded_geo",
    "type": "park",
    "neighborhood": "western-addition",
    "lat": 37.785635,
    "lon": -122.4425677,
    "description": ""
  },
  {
    "id": "baker-beach",
    "name": "Baker Beach",
    "grounding": "grounded_geo",
    "type": "beach",
    "neighborhood": "outer-richmond",
    "lat": 37.7936,
    "lon": -122.4836,
    "description": "Clothing-optional beach with Golden Gate Bridge backdrop, Marin Headlands view"
  },
  {
    "id": "balanced-unbalanced-t",
    "name": "Balanced, Unbalanced T",
    "grounding": "grounded_geo",
    "type": "artwork",
    "neighborhood": "civic-center",
    "lat": 37.7779012,
    "lon": -122.4209241,
    "description": ""
  },
  {
    "id": "balay-kreative-studios",
    "name": "Balay Kreative Studios",
    "grounding": "grounded_geo",
    "type": "arts_centre",
    "neighborhood": "soma",
    "lat": 37.7829978,
    "lon": -122.405898,
    "description": ""
  },
  {
    "id": "balboa-park",
    "name": "Balboa Park",
    "grounding": "grounded_geo",
    "type": "park",
    "neighborhood": "sunnyside",
    "lat": 37.724891,
    "lon": -122.4444046,
    "description": ""
  },
  {
    "id": "balmy-alley",
    "name": "Balmy Alley",
    "grounding": "grounded_geo",
    "type": "artwork",
    "neighborhood": "the-mission",
    "lat": 37.7518165,
    "lon": -122.4124095,
    "description": ""
  },
  {
    "id": "bank-of-canton-former-chinese-telephone-exchange",
    "name": "Bank of Canton (former Chinese Telephone Exchange)",
    "grounding": "grounded_geo",
    "type": "attraction",
    "neighborhood": "chinatown",
    "lat": 37.7950734,
    "lon": -122.4062668,
    "description": ""
  },
  {
    "id": "battery-bridge-mural",
    "name": "Battery Bridge Mural",
    "grounding": "grounded_geo",
    "type": "artwork",
    "neighborhood": "financial-district",
    "lat": 37.7910755,
    "lon": -122.3995815,
    "description": ""
  },
  {
    "id": "battery-east",
    "name": "Battery East",
    "grounding": "grounded_geo",
    "type": "viewpoint",
    "neighborhood": "presidio-terrace",
    "lat": 37.8076013,
    "lon": -122.472601,
    "description": ""
  },
  {
    "id": "bay-bridge-trail-lookout",
    "name": "Bay Bridge Trail Lookout",
    "grounding": "grounded_geo",
    "type": "viewpoint",
    "neighborhood": "embarcadero",
    "lat": 37.8107934,
    "lon": -122.3633297,
    "description": ""
  },
  {
    "id": "bay-bridge-and-treasure-island-viewpoint",
    "name": "Bay Bridge and Treasure Island Viewpoint",
    "grounding": "grounded_geo",
    "type": "viewpoint",
    "neighborhood": "embarcadero",
    "lat": 37.7944834,
    "lon": -122.3897661,
    "description": ""
  },
  {
    "id": "bay-cruise-line",
    "name": "Bay Cruise Line",
    "grounding": "grounded_geo",
    "type": "attraction",
    "neighborhood": "north-beach",
    "lat": 37.8088929,
    "lon": -122.4113668,
    "description": ""
  },
  {
    "id": "bay-lights-viewpoint",
    "name": "Bay Lights Viewpoint",
    "grounding": "grounded_geo",
    "type": "viewpoint",
    "neighborhood": "rincon-hill",
    "lat": 37.7874795,
    "lon": -122.3913286,
    "description": ""
  },
  {
    "id": "bayfront-park",
    "name": "Bayfront Park",
    "grounding": "grounded_geo",
    "type": "park",
    "neighborhood": "mission-bay",
    "lat": 37.7682045,
    "lon": -122.3856329,
    "description": ""
  },
  {
    "id": "bayview-gateway",
    "name": "Bayview Gateway",
    "grounding": "grounded_geo",
    "type": "artwork",
    "neighborhood": "little-hollywood",
    "lat": 37.7179292,
    "lon": -122.3979791,
    "description": ""
  },
  {
    "id": "bayview-park",
    "name": "Bayview Park",
    "grounding": "grounded_geo",
    "type": "park",
    "neighborhood": "little-hollywood",
    "lat": 37.7151452,
    "lon": -122.3926911,
    "description": ""
  },
  {
    "id": "bayview-playground",
    "name": "Bayview Playground",
    "grounding": "grounded_geo",
    "type": "park",
    "neighborhood": "bayview",
    "lat": 37.7259727,
    "lon": -122.3932436,
    "description": ""
  },
  {
    "id": "benches-park",
    "name": "Benches Park",
    "grounding": "grounded_geo",
    "type": "park",
    "neighborhood": "potrero-hill",
    "lat": 37.7619473,
    "lon": -122.4054317,
    "description": ""
  },
  {
    "id": "beniamino-bufano-peace-statue",
    "name": "Beniamino Bufano \"Peace\" Statue",
    "grounding": "grounded_geo",
    "type": "artwork",
    "neighborhood": "parkmerced",
    "lat": 37.7146792,
    "lon": -122.47593,
    "description": ""
  },
  {
    "id": "berggruen-gallery",
    "name": "Berggruen Gallery",
    "grounding": "grounded_geo",
    "type": "gallery",
    "neighborhood": "rincon-hill",
    "lat": 37.7856328,
    "lon": -122.3992407,
    "description": ""
  },
  {
    "id": "bernal-heights-park",
    "name": "Bernal Heights Park",
    "grounding": "grounded_geo",
    "type": "park",
    "neighborhood": "bernal-heights",
    "lat": 37.7413,
    "lon": -122.4155,
    "description": "Summit park with 360° views, dogs off-leash all over the hill, radio tower, beloved by locals"
  },
  {
    "id": "bernal-recreation-center",
    "name": "Bernal Recreation Center",
    "grounding": "grounded_geo",
    "type": "park",
    "neighborhood": "bernal-heights",
    "lat": 37.7384647,
    "lon": -122.416177,
    "description": ""
  },
  {
    "id": "berz-gallery-of-african-art",
    "name": "Berz Gallery Of African Art",
    "grounding": "grounded_geo",
    "type": "gallery",
    "neighborhood": "north-beach",
    "lat": 37.80119,
    "lon": -122.4076232,
    "description": ""
  },
  {
    "id": "beyond-the-sea-the-life-and-legacy-of-captain-leidesdorff",
    "name": "Beyond the Sea - The Life and Legacy of Captain Leidesdorff",
    "grounding": "grounded_geo",
    "type": "artwork",
    "neighborhood": "financial-district",
    "lat": 37.7941151,
    "lon": -122.4022165,
    "description": ""
  },
  {
    "id": "big-heart-on-the-rock",
    "name": "Big Heart on the Rock",
    "grounding": "grounded_geo",
    "type": "artwork",
    "neighborhood": "financial-district",
    "lat": 37.7979162,
    "lon": -122.3989876,
    "description": ""
  },
  {
    "id": "billy-goat-hill",
    "name": "Billy Goat Hill",
    "grounding": "grounded_geo",
    "type": "park",
    "neighborhood": "diamond-heights",
    "lat": 37.7413233,
    "lon": -122.4331951,
    "description": ""
  },
  {
    "id": "bimla-rhinehart-vista-point",
    "name": "Bimla Rhinehart Vista Point",
    "grounding": "grounded_geo",
    "type": "viewpoint",
    "neighborhood": "embarcadero",
    "lat": 37.8143505,
    "lon": -122.3584928,
    "description": ""
  },
  {
    "id": "birdhouse-gallery",
    "name": "Birdhouse Gallery",
    "grounding": "grounded_geo",
    "type": "gallery",
    "neighborhood": "sunset-district",
    "lat": 37.761265,
    "lon": -122.4895943,
    "description": ""
  },
  {
    "id": "blooming-on-fragrance-alley",
    "name": "Blooming on Fragrance Alley",
    "grounding": "grounded_geo",
    "type": "artwork",
    "neighborhood": "chinatown",
    "lat": 37.7940083,
    "lon": -122.4074946,
    "description": ""
  },
  {
    "id": "blue-shield-of-california-theater-at-ybca",
    "name": "Blue Shield of California Theater at YBCA",
    "grounding": "grounded_geo",
    "type": "theatre",
    "neighborhood": "union-square",
    "lat": 37.7852456,
    "lon": -122.4011543,
    "description": ""
  },
  {
    "id": "boeddeker-park",
    "name": "Boeddeker Park",
    "grounding": "grounded_geo",
    "type": "park",
    "neighborhood": "tenderloin",
    "lat": 37.7844987,
    "lon": -122.4121194,
    "description": ""
  },
  {
    "id": "book-job-gallery",
    "name": "Book & Job Gallery",
    "grounding": "grounded_geo",
    "type": "gallery",
    "neighborhood": "lower-nob-hill",
    "lat": 37.7863435,
    "lon": -122.4171123,
    "description": ""
  },
  {
    "id": "bookmobile-treasure-island",
    "name": "Bookmobile Treasure Island",
    "grounding": "grounded_geo",
    "type": "mobile_library",
    "neighborhood": "embarcadero",
    "lat": 37.8267386,
    "lon": -122.3710938,
    "description": ""
  },
  {
    "id": "bosworth-street-open-space",
    "name": "Bosworth Street Open Space",
    "grounding": "grounded_geo",
    "type": "park",
    "neighborhood": "glen-park",
    "lat": 37.734526,
    "lon": -122.4373942,
    "description": ""
  },
  {
    "id": "bradford-street",
    "name": "Bradford Street",
    "grounding": "grounded_geo",
    "type": "attraction",
    "neighborhood": "bernal-heights",
    "lat": 37.7373339,
    "lon": -122.4097114,
    "description": ""
  },
  {
    "id": "brannan-street-wharf",
    "name": "Brannan Street Wharf",
    "grounding": "grounded_geo",
    "type": "park",
    "neighborhood": "rincon-hill",
    "lat": 37.7843426,
    "lon": -122.3876543,
    "description": ""
  },
  {
    "id": "brava-theater-center",
    "name": "Brava Theater Center",
    "grounding": "grounded_geo",
    "type": "theatre",
    "neighborhood": "potrero-terrace",
    "lat": 37.7527528,
    "lon": -122.4078335,
    "description": ""
  },
  {
    "id": "brick-and-mortar",
    "name": "Brick and Mortar",
    "grounding": "grounded_geo",
    "type": "theatre",
    "neighborhood": "hayes-valley",
    "lat": 37.7696864,
    "lon": -122.4203028,
    "description": ""
  },
  {
    "id": "brijean",
    "name": "Brijean",
    "grounding": "grounded_geo",
    "type": "artwork",
    "neighborhood": "fillmore",
    "lat": 37.7870836,
    "lon": -122.4336739,
    "description": ""
  },
  {
    "id": "broadway-tunnel-west-mini-park",
    "name": "Broadway Tunnel West Mini Park",
    "grounding": "grounded_geo",
    "type": "park",
    "neighborhood": "nob-hill",
    "lat": 37.7964407,
    "lon": -122.4174368,
    "description": ""
  },
  {
    "id": "bronze-horse",
    "name": "Bronze Horse",
    "grounding": "grounded_geo",
    "type": "artwork",
    "neighborhood": "financial-district",
    "lat": 37.7959266,
    "lon": -122.3988803,
    "description": ""
  },
  {
    "id": "brooks-park",
    "name": "Brooks Park",
    "grounding": "grounded_geo",
    "type": "park",
    "neighborhood": "ingleside-terraces",
    "lat": 37.717259,
    "lon": -122.4668938,
    "description": ""
  },
  {
    "id": "buckeye-grove",
    "name": "Buckeye Grove",
    "grounding": "grounded_geo",
    "type": "park",
    "neighborhood": "embarcadero",
    "lat": 37.812422,
    "lon": -122.3707313,
    "description": ""
  },
  {
    "id": "buckyball",
    "name": "Buckyball",
    "grounding": "grounded_geo",
    "type": "artwork",
    "neighborhood": "financial-district",
    "lat": 37.8012494,
    "lon": -122.3987696,
    "description": ""
  },
  {
    "id": "buddha",
    "name": "Buddha",
    "grounding": "grounded_geo",
    "type": "artwork",
    "neighborhood": "inner-sunset",
    "lat": 37.7703094,
    "lon": -122.4700278,
    "description": ""
  },
  {
    "id": "buena-vista-park",
    "name": "Buena Vista Park",
    "grounding": "grounded_geo",
    "type": "park",
    "neighborhood": "haight-ashbury",
    "lat": 37.77,
    "lon": -122.4428,
    "description": "Forested hilltop park, oldest park in SF, overgrown trails, panoramic views, cruising history"
  },
  {
    "id": "buena-vista-peace-symbol",
    "name": "Buena Vista Peace Symbol",
    "grounding": "grounded_geo",
    "type": "garden",
    "neighborhood": "haight-ashbury",
    "lat": 37.7705932,
    "lon": -122.4405792,
    "description": ""
  },
  {
    "id": "buriel-clay-theatre",
    "name": "Buriel Clay Theatre",
    "grounding": "grounded_geo",
    "type": "theatre",
    "neighborhood": "hayes-valley",
    "lat": 37.7783924,
    "lon": -122.4292798,
    "description": ""
  },
  {
    "id": "butterflight",
    "name": "Butterflight",
    "grounding": "grounded_geo",
    "type": "artwork",
    "neighborhood": "union-square",
    "lat": 37.7875653,
    "lon": -122.4080223,
    "description": ""
  },
  {
    "id": "cmac-edge-on-the-square",
    "name": "CMAC Edge on the Square",
    "grounding": "grounded_geo",
    "type": "arts_centre",
    "neighborhood": "chinatown",
    "lat": 37.7943644,
    "lon": -122.4062299,
    "description": ""
  },
  {
    "id": "cable-car-turntable-hyde-beach",
    "name": "Cable Car Turntable (Hyde & Beach)",
    "grounding": "grounded_geo",
    "type": "attraction",
    "neighborhood": "fishermans-wharf",
    "lat": 37.8070414,
    "lon": -122.4212372,
    "description": ""
  },
  {
    "id": "cable-car-turntable-powell-market",
    "name": "Cable Car Turntable (Powell & Market)",
    "grounding": "grounded_geo",
    "type": "attraction",
    "neighborhood": "union-square",
    "lat": 37.7847109,
    "lon": -122.4076986,
    "description": ""
  },
  {
    "id": "cable-car-turntable-taylor-bay",
    "name": "Cable Car Turntable (Taylor & Bay)",
    "grounding": "grounded_geo",
    "type": "attraction",
    "neighborhood": "fishermans-wharf",
    "lat": 37.8052318,
    "lon": -122.4152364,
    "description": ""
  },
  {
    "id": "cabrillo-playground",
    "name": "Cabrillo Playground",
    "grounding": "grounded_geo",
    "type": "park",
    "neighborhood": "outer-richmond",
    "lat": 37.7728898,
    "lon": -122.4987387,
    "description": ""
  },
  {
    "id": "california-academy-of-sciences",
    "name": "California Academy of Sciences",
    "grounding": "grounded_geo",
    "type": "museum",
    "neighborhood": "inner-sunset",
    "lat": 37.7699,
    "lon": -122.4661,
    "description": "Natural history — living roof, aquarium, planetarium, rainforest dome, all under one roof in GG Park"
  },
  {
    "id": "california-historical-society-museum-bookstore",
    "name": "California Historical Society Museum & Bookstore",
    "grounding": "grounded_geo",
    "type": "museum",
    "neighborhood": "union-square",
    "lat": 37.7868729,
    "lon": -122.4015219,
    "description": ""
  },
  {
    "id": "california-society-of-pioneers-museum-and-library",
    "name": "California Society of Pioneers Museum and Library",
    "grounding": "grounded_geo",
    "type": "museum",
    "neighborhood": "presidio-terrace",
    "lat": 37.7999996,
    "lon": -122.4596162,
    "description": ""
  },
  {
    "id": "california-and-powell-streets",
    "name": "California and Powell streets",
    "grounding": "grounded_geo",
    "type": "attraction",
    "neighborhood": "chinatown",
    "lat": 37.7920515,
    "lon": -122.4091846,
    "description": ""
  },
  {
    "id": "candlestick-point-state-recreation-area",
    "name": "Candlestick Point State Recreation Area",
    "grounding": "grounded_geo",
    "type": "park",
    "neighborhood": "hunters-point",
    "lat": 37.7171518,
    "lon": -122.3829973,
    "description": ""
  },
  {
    "id": "caroline-h-hume-concert-hall",
    "name": "Caroline H. Hume Concert Hall",
    "grounding": "grounded_geo",
    "type": "theatre",
    "neighborhood": "hayes-valley",
    "lat": 37.7757077,
    "lon": -122.4203157,
    "description": ""
  },
  {
    "id": "cartoon-art-museum",
    "name": "Cartoon Art Museum",
    "grounding": "grounded_geo",
    "type": "museum",
    "neighborhood": "fishermans-wharf",
    "lat": 37.8063768,
    "lon": -122.4217874,
    "description": ""
  },
  {
    "id": "catharine-clark-gallery",
    "name": "Catharine Clark Gallery",
    "grounding": "grounded_geo",
    "type": "gallery",
    "neighborhood": "potrero-hill",
    "lat": 37.7663526,
    "lon": -122.4068203,
    "description": ""
  },
  {
    "id": "causeway-park",
    "name": "Causeway Park",
    "grounding": "grounded_geo",
    "type": "park",
    "neighborhood": "embarcadero",
    "lat": 37.8154367,
    "lon": -122.3714745,
    "description": ""
  },
  {
    "id": "cave-man",
    "name": "Cave Man",
    "grounding": "grounded_geo",
    "type": "artwork",
    "neighborhood": "inner-richmond",
    "lat": 37.7721814,
    "lon": -122.467656,
    "description": ""
  },
  {
    "id": "cayuga-lamartine-mini-park",
    "name": "Cayuga & Lamartine mini park",
    "grounding": "grounded_geo",
    "type": "park",
    "neighborhood": "glen-park",
    "lat": 37.7303526,
    "lon": -122.432957,
    "description": ""
  },
  {
    "id": "cayuga-park",
    "name": "Cayuga Park",
    "grounding": "grounded_geo",
    "type": "park",
    "neighborhood": "outer-mission",
    "lat": 37.7139607,
    "lon": -122.450369,
    "description": ""
  },
  {
    "id": "china-basin-park",
    "name": "China Basin Park",
    "grounding": "grounded_geo",
    "type": "park",
    "neighborhood": "south-beach",
    "lat": 37.7761309,
    "lon": -122.3884958,
    "description": ""
  },
  {
    "id": "chinese-historical-society-of-america",
    "name": "Chinese Historical Society of America",
    "grounding": "grounded_geo",
    "type": "museum",
    "neighborhood": "chinatown",
    "lat": 37.7938567,
    "lon": -122.4088198,
    "description": ""
  },
  {
    "id": "chloe-gallery",
    "name": "Chloe Gallery",
    "grounding": "grounded_geo",
    "type": "gallery",
    "neighborhood": "union-square",
    "lat": 37.7883209,
    "lon": -122.4090678,
    "description": ""
  },
  {
    "id": "chorus-hall",
    "name": "Chorus Hall",
    "grounding": "grounded_geo",
    "type": "theatre",
    "neighborhood": "hayes-valley",
    "lat": 37.7731838,
    "lon": -122.4193115,
    "description": ""
  },
  {
    "id": "christian-science-reading-room",
    "name": "Christian Science Reading Room",
    "grounding": "grounded_geo",
    "type": "library",
    "neighborhood": "west-portal",
    "lat": 37.7387426,
    "lon": -122.4684411,
    "description": ""
  },
  {
    "id": "christmas-tree-point",
    "name": "Christmas Tree Point",
    "grounding": "grounded_geo",
    "type": "viewpoint",
    "neighborhood": "midtown-terrace",
    "lat": 37.7549299,
    "lon": -122.4466425,
    "description": ""
  },
  {
    "id": "city-art-gallery",
    "name": "City Art Gallery",
    "grounding": "grounded_geo",
    "type": "gallery",
    "neighborhood": "the-mission",
    "lat": 37.75949,
    "lon": -122.4215376,
    "description": ""
  },
  {
    "id": "city-hall",
    "name": "City Hall",
    "grounding": "grounded_geo",
    "type": "civic",
    "neighborhood": "civic-center",
    "lat": 37.7793,
    "lon": -122.4193,
    "description": "Gilded dome (taller than DC's Capitol), Harvey Milk was shot here, civic events"
  },
  {
    "id": "cityc",
    "name": "Cityc",
    "grounding": "grounded_geo",
    "type": "viewpoint",
    "neighborhood": "duboce-triangle",
    "lat": 37.7702949,
    "lon": -122.4366806,
    "description": ""
  },
  {
    "id": "cityscape-lounge",
    "name": "Cityscape Lounge",
    "grounding": "grounded_geo",
    "type": "viewpoint",
    "neighborhood": "tenderloin",
    "lat": 37.7853003,
    "lon": -122.4109326,
    "description": ""
  },
  {
    "id": "cityside-park",
    "name": "Cityside Park",
    "grounding": "grounded_geo",
    "type": "park",
    "neighborhood": "embarcadero",
    "lat": 37.8195749,
    "lon": -122.3739276,
    "description": ""
  },
  {
    "id": "civic-center-plaza",
    "name": "Civic Center Plaza",
    "grounding": "grounded_geo",
    "type": "park",
    "neighborhood": "civic-center",
    "lat": 37.7794895,
    "lon": -122.4176099,
    "description": ""
  },
  {
    "id": "clayroom",
    "name": "Clayroom",
    "grounding": "grounded_geo",
    "type": "arts_centre",
    "neighborhood": "soma",
    "lat": 37.7729832,
    "lon": -122.4103495,
    "description": ""
  },
  {
    "id": "climate-change-is-real",
    "name": "Climate change is real",
    "grounding": "grounded_geo",
    "type": "artwork",
    "neighborhood": "union-square",
    "lat": 37.7876511,
    "lon": -122.4097913,
    "description": ""
  },
  {
    "id": "clipper-cove",
    "name": "Clipper Cove",
    "grounding": "grounded_geo",
    "type": "park",
    "neighborhood": "embarcadero",
    "lat": 37.8164108,
    "lon": -122.3702303,
    "description": ""
  },
  {
    "id": "clipper-cove-beach",
    "name": "Clipper Cove Beach",
    "grounding": "grounded_geo",
    "type": "park",
    "neighborhood": "embarcadero",
    "lat": 37.8139647,
    "lon": -122.3703862,
    "description": ""
  },
  {
    "id": "cloud-portal",
    "name": "Cloud Portal",
    "grounding": "grounded_geo",
    "type": "artwork",
    "neighborhood": "financial-district",
    "lat": 37.7963307,
    "lon": -122.3981739,
    "description": ""
  },
  {
    "id": "cobbs-comedy-club",
    "name": "Cobb's Comedy Club",
    "grounding": "grounded_geo",
    "type": "theatre",
    "neighborhood": "russian-hill",
    "lat": 37.8029233,
    "lon": -122.4142026,
    "description": ""
  },
  {
    "id": "coit-tower",
    "name": "Coit Tower",
    "grounding": "grounded_geo",
    "type": "monument",
    "neighborhood": "north-beach",
    "lat": 37.8024,
    "lon": -122.4058,
    "description": "WPA murals inside, Telegraph Hill views, feral parrots, steps from North Beach"
  },
  {
    "id": "coit-tower-bay-bridge-view",
    "name": "Coit Tower & Bay Bridge view",
    "grounding": "grounded_geo",
    "type": "viewpoint",
    "neighborhood": "russian-hill",
    "lat": 37.7994183,
    "lon": -122.4174012,
    "description": ""
  },
  {
    "id": "coit-tower-east-bay",
    "name": "Coit Tower & East Bay",
    "grounding": "grounded_geo",
    "type": "viewpoint",
    "neighborhood": "russian-hill",
    "lat": 37.8002518,
    "lon": -122.4183953,
    "description": ""
  },
  {
    "id": "col-gallery",
    "name": "Col Gallery",
    "grounding": "grounded_geo",
    "type": "gallery",
    "neighborhood": "fishermans-wharf",
    "lat": 37.8061953,
    "lon": -122.423189,
    "description": ""
  },
  {
    "id": "coleridge-mini-park",
    "name": "Coleridge Mini Park",
    "grounding": "grounded_geo",
    "type": "park",
    "neighborhood": "bernal-heights",
    "lat": 37.7443548,
    "lon": -122.4195069,
    "description": ""
  },
  {
    "id": "coleridge-park",
    "name": "Coleridge Park",
    "grounding": "grounded_geo",
    "type": "park",
    "neighborhood": "bernal-heights",
    "lat": 37.7432024,
    "lon": -122.4203012,
    "description": ""
  },
  {
    "id": "colorfall-of-hope",
    "name": "ColorFall of Hope",
    "grounding": "grounded_geo",
    "type": "artwork",
    "neighborhood": "castro",
    "lat": 37.760675,
    "lon": -122.4348598,
    "description": ""
  },
  {
    "id": "community-park",
    "name": "Community Park",
    "grounding": "grounded_geo",
    "type": "park",
    "neighborhood": "castro",
    "lat": 37.7608053,
    "lon": -122.4404452,
    "description": ""
  },
  {
    "id": "concrete-turtle",
    "name": "Concrete Turtle",
    "grounding": "grounded_geo",
    "type": "artwork",
    "neighborhood": "outer-richmond",
    "lat": 37.7707954,
    "lon": -122.4954189,
    "description": ""
  },
  {
    "id": "confluence",
    "name": "Confluence",
    "grounding": "grounded_geo",
    "type": "artwork",
    "neighborhood": "union-square",
    "lat": 37.788012,
    "lon": -122.409892,
    "description": ""
  },
  {
    "id": "convergence-commute-patterns",
    "name": "Convergence: Commute Patterns",
    "grounding": "grounded_geo",
    "type": "artwork",
    "neighborhood": "union-square",
    "lat": 37.7876846,
    "lon": -122.407049,
    "description": ""
  },
  {
    "id": "corbett-slope-community-park",
    "name": "Corbett Slope Community Park",
    "grounding": "grounded_geo",
    "type": "park",
    "neighborhood": "castro",
    "lat": 37.7601565,
    "lon": -122.4445566,
    "description": ""
  },
  {
    "id": "corona-heights-park",
    "name": "Corona Heights Park",
    "grounding": "grounded_geo",
    "type": "park",
    "neighborhood": "castro",
    "lat": 37.7647693,
    "lon": -122.4388981,
    "description": ""
  },
  {
    "id": "corridor-pin-blue",
    "name": "Corridor Pin, Blue",
    "grounding": "grounded_geo",
    "type": "artwork",
    "neighborhood": "inner-sunset",
    "lat": 37.7706935,
    "lon": -122.469124,
    "description": ""
  },
  {
    "id": "coso-square",
    "name": "Coso Square",
    "grounding": "grounded_geo",
    "type": "park",
    "neighborhood": "bernal-heights",
    "lat": 37.7462769,
    "lon": -122.4181006,
    "description": ""
  },
  {
    "id": "cottage-row-mini-park",
    "name": "Cottage Row Mini Park",
    "grounding": "grounded_geo",
    "type": "park",
    "neighborhood": "japantown",
    "lat": 37.7864568,
    "lon": -122.4323255,
    "description": ""
  },
  {
    "id": "counterpulse",
    "name": "CounterPulse",
    "grounding": "grounded_geo",
    "type": "theatre",
    "neighborhood": "tenderloin",
    "lat": 37.7833739,
    "lon": -122.4104095,
    "description": ""
  },
  {
    "id": "counterculture-museum",
    "name": "Counterculture Museum",
    "grounding": "grounded_geo",
    "type": "museum",
    "neighborhood": "haight-ashbury",
    "lat": 37.7699366,
    "lon": -122.4467696,
    "description": ""
  },
  {
    "id": "couples-statue",
    "name": "Couple's Statue",
    "grounding": "grounded_geo",
    "type": "artwork",
    "neighborhood": "parkmerced",
    "lat": 37.7227921,
    "lon": -122.4806216,
    "description": ""
  },
  {
    "id": "crane-cove-park",
    "name": "Crane Cove Park",
    "grounding": "grounded_geo",
    "type": "park",
    "neighborhood": "pier-70",
    "lat": 37.7628344,
    "lon": -122.3869691,
    "description": ""
  },
  {
    "id": "crissy-field",
    "name": "Crissy Field",
    "grounding": "grounded_geo",
    "type": "waterfront",
    "neighborhood": "marina",
    "lat": 37.8038,
    "lon": -122.462,
    "description": "Restored tidal marsh and beach along the bay, Golden Gate views, cyclists, dog walkers, kite fliers"
  },
  {
    "id": "crocker-amazon-playground",
    "name": "Crocker Amazon Playground",
    "grounding": "grounded_geo",
    "type": "park",
    "neighborhood": "crocker-amazon",
    "lat": 37.71425,
    "lon": -122.430344,
    "description": ""
  },
  {
    "id": "crown-point-press",
    "name": "Crown Point Press",
    "grounding": "grounded_geo",
    "type": "gallery",
    "neighborhood": "rincon-hill",
    "lat": 37.7855267,
    "lon": -122.3991093,
    "description": ""
  },
  {
    "id": "cultural-park",
    "name": "Cultural Park",
    "grounding": "grounded_geo",
    "type": "park",
    "neighborhood": "embarcadero",
    "lat": 37.8181477,
    "lon": -122.3719332,
    "description": ""
  },
  {
    "id": "cutting-ball-theater",
    "name": "Cutting Ball Theater",
    "grounding": "grounded_geo",
    "type": "theatre",
    "neighborhood": "tenderloin",
    "lat": 37.784722,
    "lon": -122.4112289,
    "description": ""
  },
  {
    "id": "cyclone-fragment",
    "name": "Cyclone Fragment",
    "grounding": "grounded_geo",
    "type": "artwork",
    "neighborhood": "civic-center",
    "lat": 37.7790548,
    "lon": -122.4161073,
    "description": ""
  },
  {
    "id": "daggett-park",
    "name": "Daggett Park",
    "grounding": "grounded_geo",
    "type": "park",
    "neighborhood": "mission-bay",
    "lat": 37.7668918,
    "lon": -122.3964437,
    "description": ""
  },
  {
    "id": "decker-theater",
    "name": "Decker Theater",
    "grounding": "grounded_geo",
    "type": "theatre",
    "neighborhood": "hayes-valley",
    "lat": 37.7757201,
    "lon": -122.4200637,
    "description": ""
  },
  {
    "id": "deep-gradient-suspect-terrain",
    "name": "Deep Gradient / Suspect Terrain",
    "grounding": "grounded_geo",
    "type": "artwork",
    "neighborhood": "union-square",
    "lat": 37.7853328,
    "lon": -122.4016386,
    "description": ""
  },
  {
    "id": "deepistan-national-parklet",
    "name": "Deepistan National Parklet",
    "grounding": "grounded_geo",
    "type": "park",
    "neighborhood": "the-mission",
    "lat": 37.7578537,
    "lon": -122.4211305,
    "description": ""
  },
  {
    "id": "diana",
    "name": "Diana",
    "grounding": "grounded_geo",
    "type": "artwork",
    "neighborhood": "outer-richmond",
    "lat": 37.7787517,
    "lon": -122.5101062,
    "description": ""
  },
  {
    "id": "diego-rivera-theatre",
    "name": "Diego Rivera Theatre",
    "grounding": "grounded_geo",
    "type": "theatre",
    "neighborhood": "westwood-park",
    "lat": 37.7275448,
    "lon": -122.4510188,
    "description": ""
  },
  {
    "id": "dogpatch-arts-plaza",
    "name": "Dogpatch Arts Plaza",
    "grounding": "grounded_geo",
    "type": "park",
    "neighborhood": "dogpatch",
    "lat": 37.7615964,
    "lon": -122.3918145,
    "description": ""
  },
  {
    "id": "dolores-park",
    "name": "Dolores Park",
    "grounding": "grounded_geo",
    "type": "park",
    "neighborhood": "the-mission",
    "lat": 37.7596,
    "lon": -122.4269,
    "description": "Mission's social hub — picnics, views of downtown, Castro on one side, J-Church streetcar"
  },
  {
    "id": "dolphin-swimming-boating-club-est-1877",
    "name": "Dolphin Swimming & Boating Club (est. 1877)",
    "grounding": "grounded_geo",
    "type": "landmark",
    "neighborhood": "fishermans-wharf",
    "lat": 37.8076795,
    "lon": -122.4213722,
    "description": ""
  },
  {
    "id": "doppel-fountain",
    "name": "Doppel Fountain",
    "grounding": "grounded_geo",
    "type": "artwork",
    "neighborhood": "mission-bay",
    "lat": 37.7662698,
    "lon": -122.3879443,
    "description": ""
  },
  {
    "id": "dorothy-w-erskine-park",
    "name": "Dorothy W. Erskine Park",
    "grounding": "grounded_geo",
    "type": "park",
    "neighborhood": "sunnyside",
    "lat": 37.7339176,
    "lon": -122.439409,
    "description": ""
  },
  {
    "id": "double-l-excentric-gyratory",
    "name": "Double L Excentric Gyratory",
    "grounding": "grounded_geo",
    "type": "artwork",
    "neighborhood": "civic-center",
    "lat": 37.7793545,
    "lon": -122.4165196,
    "description": ""
  },
  {
    "id": "douglass-playground",
    "name": "Douglass Playground",
    "grounding": "grounded_geo",
    "type": "park",
    "neighborhood": "noe-valley",
    "lat": 37.7478492,
    "lon": -122.4387947,
    "description": ""
  },
  {
    "id": "dragon-gate",
    "name": "Dragon Gate",
    "grounding": "grounded_geo",
    "type": "attraction",
    "neighborhood": "union-square",
    "lat": 37.7906877,
    "lon": -122.4055936,
    "description": ""
  },
  {
    "id": "duboce-park",
    "name": "Duboce Park",
    "grounding": "grounded_geo",
    "type": "park",
    "neighborhood": "lower-haight",
    "lat": 37.7693,
    "lon": -122.4328,
    "description": "Popular dog park, N-Judah streetcar passes alongside, Duboce Triangle neighborhood"
  },
  {
    "id": "duncan-castro-open-space",
    "name": "Duncan-Castro Open Space",
    "grounding": "grounded_geo",
    "type": "park",
    "neighborhood": "noe-valley",
    "lat": 37.7460853,
    "lon": -122.4334138,
    "description": ""
  },
  {
    "id": "eagles-point-overlook",
    "name": "Eagles Point Overlook",
    "grounding": "grounded_geo",
    "type": "viewpoint",
    "neighborhood": "seacliff",
    "lat": 37.7867354,
    "lon": -122.4948334,
    "description": ""
  },
  {
    "id": "eat-travel-play-care",
    "name": "Eat, Travel, Play, Care",
    "grounding": "grounded_geo",
    "type": "artwork",
    "neighborhood": "inner-sunset",
    "lat": 37.7715885,
    "lon": -122.460923,
    "description": ""
  },
  {
    "id": "ecker-square",
    "name": "Ecker Square",
    "grounding": "grounded_geo",
    "type": "park",
    "neighborhood": "financial-district",
    "lat": 37.7896269,
    "lon": -122.3987125,
    "description": ""
  },
  {
    "id": "eclectic-box",
    "name": "Eclectic Box",
    "grounding": "grounded_geo",
    "type": "theatre",
    "neighborhood": "duboce-triangle",
    "lat": 37.7657002,
    "lon": -122.4221387,
    "description": ""
  },
  {
    "id": "eden-fine-art",
    "name": "Eden Fine Art",
    "grounding": "grounded_geo",
    "type": "gallery",
    "neighborhood": "fishermans-wharf",
    "lat": 37.8080243,
    "lon": -122.4163374,
    "description": ""
  },
  {
    "id": "edgehill-mountain-open-space",
    "name": "Edgehill Mountain Open Space",
    "grounding": "grounded_geo",
    "type": "park",
    "neighborhood": "west-portal",
    "lat": 37.741928,
    "lon": -122.4598405,
    "description": ""
  },
  {
    "id": "ella-hill-hutch-community-center",
    "name": "Ella Hill Hutch Community Center",
    "grounding": "grounded_geo",
    "type": "park",
    "neighborhood": "alamo-square",
    "lat": 37.7794323,
    "lon": -122.429298,
    "description": ""
  },
  {
    "id": "embarcadero-plaza",
    "name": "Embarcadero Plaza",
    "grounding": "grounded_geo",
    "type": "park",
    "neighborhood": "embarcadero",
    "lat": 37.7949007,
    "lon": -122.3946478,
    "description": ""
  },
  {
    "id": "embarcadero-waterfront",
    "name": "Embarcadero Waterfront",
    "grounding": "grounded_geo",
    "type": "waterfront",
    "neighborhood": "embarcadero",
    "lat": 37.7955,
    "lon": -122.394,
    "description": "Ferry Building to Bay Bridge — promenade, farmers market, bay views, tourist ferries"
  },
  {
    "id": "emerald-park",
    "name": "Emerald Park",
    "grounding": "grounded_geo",
    "type": "park",
    "neighborhood": "rincon-hill",
    "lat": 37.7867988,
    "lon": -122.3915259,
    "description": ""
  },
  {
    "id": "empire-park",
    "name": "Empire Park",
    "grounding": "grounded_geo",
    "type": "park",
    "neighborhood": "financial-district",
    "lat": 37.7942695,
    "lon": -122.4038503,
    "description": ""
  },
  {
    "id": "endgames-improv",
    "name": "Endgames Improv",
    "grounding": "grounded_geo",
    "type": "theatre",
    "neighborhood": "bernal-heights",
    "lat": 37.7496795,
    "lon": -122.4180318,
    "description": ""
  },
  {
    "id": "enter-the-cafe",
    "name": "Enter the Cafe",
    "grounding": "grounded_geo",
    "type": "artwork",
    "neighborhood": "chinatown",
    "lat": 37.7975098,
    "lon": -122.4104903,
    "description": ""
  },
  {
    "id": "erik-erikson-library",
    "name": "Erik Erikson Library",
    "grounding": "grounded_geo",
    "type": "library",
    "neighborhood": "soma",
    "lat": 37.7810853,
    "lon": -122.4067378,
    "description": ""
  },
  {
    "id": "esprit-park",
    "name": "Esprit Park",
    "grounding": "grounded_geo",
    "type": "park",
    "neighborhood": "dogpatch",
    "lat": 37.7610054,
    "lon": -122.3910233,
    "description": ""
  },
  {
    "id": "et-al-gallery-and-bookshop",
    "name": "Et al. Gallery and Bookshop",
    "grounding": "grounded_geo",
    "type": "gallery",
    "neighborhood": "the-mission",
    "lat": 37.7516852,
    "lon": -122.4181903,
    "description": ""
  },
  {
    "id": "eureka-valley-recreation-center",
    "name": "Eureka Valley Recreation Center",
    "grounding": "grounded_geo",
    "type": "park",
    "neighborhood": "castro",
    "lat": 37.7598956,
    "lon": -122.4365559,
    "description": ""
  },
  {
    "id": "excelsior-playground",
    "name": "Excelsior Playground",
    "grounding": "grounded_geo",
    "type": "park",
    "neighborhood": "excelsior",
    "lat": 37.7203442,
    "lon": -122.433238,
    "description": ""
  },
  {
    "id": "exploratorium",
    "name": "Exploratorium",
    "grounding": "grounded_geo",
    "type": "museum",
    "neighborhood": "financial-district",
    "lat": 37.800906,
    "lon": -122.398523,
    "description": ""
  },
  {
    "id": "fairmount-open-space",
    "name": "Fairmount Open Space",
    "grounding": "grounded_geo",
    "type": "park",
    "neighborhood": "glen-park",
    "lat": 37.7384253,
    "lon": -122.4291652,
    "description": ""
  },
  {
    "id": "fallen-bridge-park",
    "name": "Fallen Bridge Park",
    "grounding": "grounded_geo",
    "type": "park",
    "neighborhood": "potrero-hill",
    "lat": 37.7623615,
    "lon": -122.4060262,
    "description": ""
  },
  {
    "id": "far-out-gallery",
    "name": "Far Out Gallery",
    "grounding": "grounded_geo",
    "type": "gallery",
    "neighborhood": "parkside",
    "lat": 37.7421849,
    "lon": -122.4983934,
    "description": ""
  },
  {
    "id": "far-west-library-for-educational-research-and-development",
    "name": "Far West Library for Educational Research and Development",
    "grounding": "grounded_geo",
    "type": "library",
    "neighborhood": "the-mission",
    "lat": 37.7671519,
    "lon": -122.414971,
    "description": ""
  },
  {
    "id": "fay-park",
    "name": "Fay Park",
    "grounding": "grounded_geo",
    "type": "park",
    "neighborhood": "russian-hill",
    "lat": 37.8029028,
    "lon": -122.4178775,
    "description": ""
  },
  {
    "id": "fear-head",
    "name": "Fear Head",
    "grounding": "grounded_geo",
    "type": "artwork",
    "neighborhood": "tenderloin",
    "lat": 37.7821072,
    "lon": -122.4114265,
    "description": ""
  },
  {
    "id": "ferry-building",
    "name": "Ferry Building",
    "grounding": "grounded_geo",
    "type": "market",
    "neighborhood": "embarcadero",
    "lat": 37.7955,
    "lon": -122.3937,
    "description": "1898 Beaux-Arts terminal, Saturday farmers market, artisan food vendors, bay views"
  },
  {
    "id": "fillmore-turk-mini-park",
    "name": "Fillmore & Turk Mini Park",
    "grounding": "grounded_geo",
    "type": "park",
    "neighborhood": "fillmore",
    "lat": 37.7801597,
    "lon": -122.4318646,
    "description": ""
  },
  {
    "id": "fillmore-auditorium",
    "name": "Fillmore Auditorium",
    "grounding": "grounded_geo",
    "type": "venue",
    "neighborhood": "fillmore",
    "lat": 37.7843,
    "lon": -122.4326,
    "description": "Legendary music venue, posters are part of the mythology, shaped SF rock history"
  },
  {
    "id": "first-responder-plaza",
    "name": "First Responder Plaza",
    "grounding": "grounded_geo",
    "type": "artwork",
    "neighborhood": "mission-bay",
    "lat": 37.772149,
    "lon": -122.3893469,
    "description": ""
  },
  {
    "id": "fishermans-wharf",
    "name": "Fisherman's Wharf",
    "grounding": "grounded_geo",
    "type": "attraction",
    "neighborhood": "fishermans-wharf",
    "lat": 37.8081325,
    "lon": -122.4165913,
    "description": ""
  },
  {
    "id": "fishermans-wharf-of-san-francisco",
    "name": "Fishermans Wharf of San Francisco",
    "grounding": "grounded_geo",
    "type": "artwork",
    "neighborhood": "fishermans-wharf",
    "lat": 37.8083294,
    "lon": -122.4157264,
    "description": ""
  },
  {
    "id": "fort-mason",
    "name": "Fort Mason",
    "grounding": "grounded_geo",
    "type": "cultural",
    "neighborhood": "marina",
    "lat": 37.8061,
    "lon": -122.4319,
    "description": "WWII port turned cultural center — SFMOMA rental, farmer markets, theater, Bay views"
  },
  {
    "id": "fort-point-viewpoint",
    "name": "Fort Point Viewpoint",
    "grounding": "grounded_geo",
    "type": "viewpoint",
    "neighborhood": "presidio-terrace",
    "lat": 37.8084683,
    "lon": -122.4729743,
    "description": ""
  },
  {
    "id": "fort-statue",
    "name": "Fort Statue",
    "grounding": "grounded_geo",
    "type": "artwork",
    "neighborhood": "seacliff",
    "lat": 37.8036087,
    "lon": -122.475161,
    "description": ""
  },
  {
    "id": "foster-gwin-gallery",
    "name": "Foster Gwin Gallery",
    "grounding": "grounded_geo",
    "type": "gallery",
    "neighborhood": "financial-district",
    "lat": 37.7958799,
    "lon": -122.4032543,
    "description": ""
  },
  {
    "id": "fountain",
    "name": "Fountain",
    "grounding": "grounded_geo",
    "type": "artwork",
    "neighborhood": "inner-sunset",
    "lat": 37.7706728,
    "lon": -122.4693289,
    "description": ""
  },
  {
    "id": "fountain-of-four-seasons",
    "name": "Fountain of Four Seasons",
    "grounding": "grounded_geo",
    "type": "artwork",
    "neighborhood": "financial-district",
    "lat": 37.7975498,
    "lon": -122.398866,
    "description": ""
  },
  {
    "id": "fraenkel-gallery",
    "name": "Fraenkel Gallery",
    "grounding": "grounded_geo",
    "type": "gallery",
    "neighborhood": "union-square",
    "lat": 37.7877457,
    "lon": -122.4042966,
    "description": ""
  },
  {
    "id": "francisco-park",
    "name": "Francisco Park",
    "grounding": "grounded_geo",
    "type": "park",
    "neighborhood": "russian-hill",
    "lat": 37.8039599,
    "lon": -122.4208797,
    "description": ""
  },
  {
    "id": "frank-cresci-plaza",
    "name": "Frank Cresci Plaza",
    "grounding": "grounded_geo",
    "type": "park",
    "neighborhood": "fishermans-wharf",
    "lat": 37.8071558,
    "lon": -122.4153115,
    "description": ""
  },
  {
    "id": "frank-marini",
    "name": "Frank Marini",
    "grounding": "grounded_geo",
    "type": "artwork",
    "neighborhood": "north-beach",
    "lat": 37.8003993,
    "lon": -122.4105761,
    "description": ""
  },
  {
    "id": "franklin-square",
    "name": "Franklin Square",
    "grounding": "grounded_geo",
    "type": "park",
    "neighborhood": "the-mission",
    "lat": 37.7650248,
    "lon": -122.4093689,
    "description": ""
  },
  {
    "id": "fulton-playground",
    "name": "Fulton Playground",
    "grounding": "grounded_geo",
    "type": "park",
    "neighborhood": "outer-richmond",
    "lat": 37.7733869,
    "lon": -122.4869387,
    "description": ""
  },
  {
    "id": "glbt-history-museum",
    "name": "GLBT History Museum",
    "grounding": "grounded_geo",
    "type": "museum",
    "neighborhood": "castro",
    "lat": 37.7607664,
    "lon": -122.435607,
    "description": ""
  },
  {
    "id": "gallery-16",
    "name": "Gallery 16",
    "grounding": "grounded_geo",
    "type": "gallery",
    "neighborhood": "south-beach",
    "lat": 37.7813246,
    "lon": -122.3954597,
    "description": ""
  },
  {
    "id": "gallery-444",
    "name": "Gallery 444",
    "grounding": "grounded_geo",
    "type": "gallery",
    "neighborhood": "union-square",
    "lat": 37.7883076,
    "lon": -122.4091718,
    "description": ""
  },
  {
    "id": "gallery-paule-anglim",
    "name": "Gallery Paule Anglim",
    "grounding": "grounded_geo",
    "type": "gallery",
    "neighborhood": "union-square",
    "lat": 37.7880705,
    "lon": -122.4039207,
    "description": ""
  },
  {
    "id": "gallery-o-rama",
    "name": "Gallery-O-Rama",
    "grounding": "grounded_geo",
    "type": "gallery",
    "neighborhood": "nob-hill",
    "lat": 37.7944672,
    "lon": -122.4213442,
    "description": ""
  },
  {
    "id": "gambier-plaza",
    "name": "Gambier Plaza",
    "grounding": "grounded_geo",
    "type": "attraction",
    "neighborhood": "portola",
    "lat": 37.7243208,
    "lon": -122.4208026,
    "description": ""
  },
  {
    "id": "garfield-square",
    "name": "Garfield Square",
    "grounding": "grounded_geo",
    "type": "park",
    "neighborhood": "the-mission",
    "lat": 37.7502172,
    "lon": -122.4122541,
    "description": ""
  },
  {
    "id": "gateway-theatre",
    "name": "Gateway Theatre",
    "grounding": "grounded_geo",
    "type": "theatre",
    "neighborhood": "financial-district",
    "lat": 37.7967697,
    "lon": -122.400018,
    "description": ""
  },
  {
    "id": "gaylord-perry-statue",
    "name": "Gaylord Perry Statue",
    "grounding": "grounded_geo",
    "type": "artwork",
    "neighborhood": "south-beach",
    "lat": 37.7796611,
    "lon": -122.3894305,
    "description": ""
  },
  {
    "id": "gefen-gallery",
    "name": "Gefen Gallery",
    "grounding": "grounded_geo",
    "type": "gallery",
    "neighborhood": "union-square",
    "lat": 37.7892493,
    "lon": -122.4054891,
    "description": ""
  },
  {
    "id": "geneses",
    "name": "Geneses",
    "grounding": "grounded_geo",
    "type": "artwork",
    "neighborhood": "union-square",
    "lat": 37.7840863,
    "lon": -122.401977,
    "description": ""
  },
  {
    "id": "geography-department-map-library",
    "name": "Geography Department Map Library",
    "grounding": "grounded_geo",
    "type": "library",
    "neighborhood": "parkmerced",
    "lat": 37.7221747,
    "lon": -122.4757211,
    "description": ""
  },
  {
    "id": "george-christopher-playground",
    "name": "George Christopher Playground",
    "grounding": "grounded_geo",
    "type": "park",
    "neighborhood": "diamond-heights",
    "lat": 37.743635,
    "lon": -122.4398657,
    "description": ""
  },
  {
    "id": "george-d-monardo-statue",
    "name": "George D. Monardo statue",
    "grounding": "grounded_geo",
    "type": "artwork",
    "neighborhood": "duboce-triangle",
    "lat": 37.7684021,
    "lon": -122.4350381,
    "description": ""
  },
  {
    "id": "george-moscone",
    "name": "George Moscone",
    "grounding": "grounded_geo",
    "type": "artwork",
    "neighborhood": "union-square",
    "lat": 37.7846943,
    "lon": -122.4003871,
    "description": ""
  },
  {
    "id": "george-sterling-park",
    "name": "George Sterling Park",
    "grounding": "grounded_geo",
    "type": "park",
    "neighborhood": "russian-hill",
    "lat": 37.8013881,
    "lon": -122.4203426,
    "description": ""
  },
  {
    "id": "ghirardelli-chocolate-experience",
    "name": "Ghirardelli Chocolate Experience",
    "grounding": "grounded_geo",
    "type": "attraction",
    "neighborhood": "fishermans-wharf",
    "lat": 37.8059144,
    "lon": -122.42333,
    "description": ""
  },
  {
    "id": "gilbert-baker-memorial-rainbow-flag",
    "name": "Gilbert Baker Memorial Rainbow Flag",
    "grounding": "grounded_geo",
    "type": "attraction",
    "neighborhood": "castro",
    "lat": 37.7623224,
    "lon": -122.4355509,
    "description": ""
  },
  {
    "id": "gilman-playground",
    "name": "Gilman Playground",
    "grounding": "grounded_geo",
    "type": "park",
    "neighborhood": "little-hollywood",
    "lat": 37.7172465,
    "lon": -122.3881291,
    "description": ""
  },
  {
    "id": "giraffe-viewpoint",
    "name": "Giraffe Viewpoint",
    "grounding": "grounded_geo",
    "type": "viewpoint",
    "neighborhood": "parkside",
    "lat": 37.7320328,
    "lon": -122.5045202,
    "description": ""
  },
  {
    "id": "glass-rice",
    "name": "Glass Rice",
    "grounding": "grounded_geo",
    "type": "gallery",
    "neighborhood": "lower-nob-hill",
    "lat": 37.7886722,
    "lon": -122.4138515,
    "description": ""
  },
  {
    "id": "glen-canyon-park",
    "name": "Glen Canyon Park",
    "grounding": "grounded_geo",
    "type": "park",
    "neighborhood": "glen-park",
    "lat": 37.738,
    "lon": -122.4413,
    "description": "Wild canyon in the middle of the city, creek, native plants, neighborhood dogs"
  },
  {
    "id": "goddess-of-democracy",
    "name": "Goddess of Democracy",
    "grounding": "grounded_geo",
    "type": "artwork",
    "neighborhood": "chinatown",
    "lat": 37.7946842,
    "lon": -122.4054347,
    "description": ""
  },
  {
    "id": "goddess-of-victory",
    "name": "Goddess of Victory",
    "grounding": "grounded_geo",
    "type": "artwork",
    "neighborhood": "union-square",
    "lat": 37.7879343,
    "lon": -122.40752,
    "description": ""
  },
  {
    "id": "goethe-institut",
    "name": "Goethe Institut",
    "grounding": "grounded_geo",
    "type": "arts_centre",
    "neighborhood": "union-square",
    "lat": 37.790619,
    "lon": -122.4061,
    "description": ""
  },
  {
    "id": "golden-gate-steiner-mini-park",
    "name": "Golden Gate & Steiner Mini Park",
    "grounding": "grounded_geo",
    "type": "park",
    "neighborhood": "alamo-square",
    "lat": 37.7795886,
    "lon": -122.433488,
    "description": ""
  },
  {
    "id": "golden-gate-bridge-lookout",
    "name": "Golden Gate Bridge Lookout",
    "grounding": "grounded_geo",
    "type": "viewpoint",
    "neighborhood": "seacliff",
    "lat": 37.82872,
    "lon": -122.4860027,
    "description": ""
  },
  {
    "id": "golden-gate-bridge-vista-point",
    "name": "Golden Gate Bridge Vista Point",
    "grounding": "grounded_geo",
    "type": "viewpoint",
    "neighborhood": "seacliff",
    "lat": 37.8322873,
    "lon": -122.479636,
    "description": ""
  },
  {
    "id": "golden-gate-bridge-overlook",
    "name": "Golden Gate Bridge overlook",
    "grounding": "grounded_geo",
    "type": "viewpoint",
    "neighborhood": "seacliff",
    "lat": 37.804076,
    "lon": -122.4778056,
    "description": ""
  },
  {
    "id": "golden-gate-fortune-cookie-factory",
    "name": "Golden Gate Fortune Cookie Factory",
    "grounding": "grounded_geo",
    "type": "attraction",
    "neighborhood": "chinatown",
    "lat": 37.795699,
    "lon": -122.407349,
    "description": ""
  },
  {
    "id": "golden-gate-heights-park",
    "name": "Golden Gate Heights Park",
    "grounding": "grounded_geo",
    "type": "park",
    "neighborhood": "golden-gate-heights",
    "lat": 37.7499585,
    "lon": -122.4695653,
    "description": ""
  },
  {
    "id": "golden-gate-overlook",
    "name": "Golden Gate Overlook",
    "grounding": "grounded_geo",
    "type": "viewpoint",
    "neighborhood": "seacliff",
    "lat": 37.8040128,
    "lon": -122.4766999,
    "description": ""
  },
  {
    "id": "golden-gate-park",
    "name": "Golden Gate Park",
    "grounding": "grounded_geo",
    "type": "park",
    "neighborhood": "inner-sunset",
    "lat": 37.7694,
    "lon": -122.4862,
    "description": "1,017-acre urban park — de Young museum, Japanese Tea Garden, Conservatory of Flowers, bison paddock, dutch windmills, Polo Field"
  },
  {
    "id": "golden-angel-with-lamp-in-right-hand",
    "name": "Golden angel with lamp in right hand",
    "grounding": "grounded_geo",
    "type": "artwork",
    "neighborhood": "lower-haight",
    "lat": 37.7720164,
    "lon": -122.430551,
    "description": ""
  },
  {
    "id": "grace-cathedral-labyrinth",
    "name": "Grace Cathedral Labyrinth",
    "grounding": "grounded_geo",
    "type": "artwork",
    "neighborhood": "nob-hill",
    "lat": 37.7921274,
    "lon": -122.412833,
    "description": ""
  },
  {
    "id": "grand-view-park",
    "name": "Grand View Park",
    "grounding": "grounded_geo",
    "type": "park",
    "neighborhood": "golden-gate-heights",
    "lat": 37.7564502,
    "lon": -122.4718395,
    "description": ""
  },
  {
    "id": "grandview-open-space",
    "name": "Grandview Open Space",
    "grounding": "grounded_geo",
    "type": "park",
    "neighborhood": "golden-gate-heights",
    "lat": 37.7549649,
    "lon": -122.4724281,
    "description": ""
  },
  {
    "id": "grattan-playground",
    "name": "Grattan Playground",
    "grounding": "grounded_geo",
    "type": "park",
    "neighborhood": "haight-ashbury",
    "lat": 37.7626013,
    "lon": -122.4514978,
    "description": ""
  },
  {
    "id": "green-hairstreak-corridor-12th-and-pacheco",
    "name": "Green Hairstreak Corridor - 12th and Pacheco",
    "grounding": "grounded_geo",
    "type": "park",
    "neighborhood": "golden-gate-heights",
    "lat": 37.7519803,
    "lon": -122.4687292,
    "description": ""
  },
  {
    "id": "green-hairstreak-corridor-14th-avenue-pacheco",
    "name": "Green Hairstreak Corridor - 14th Avenue & Pacheco",
    "grounding": "grounded_geo",
    "type": "park",
    "neighborhood": "golden-gate-heights",
    "lat": 37.7522533,
    "lon": -122.4707497,
    "description": ""
  },
  {
    "id": "green-hairstreak-corridor-aerial-steps-access-point",
    "name": "Green Hairstreak Corridor - Aerial Steps (access point)",
    "grounding": "grounded_geo",
    "type": "park",
    "neighborhood": "golden-gate-heights",
    "lat": 37.7524594,
    "lon": -122.4705781,
    "description": ""
  },
  {
    "id": "green-hairstreak-corridor-aloha-lomita",
    "name": "Green Hairstreak Corridor - Aloha & Lomita",
    "grounding": "grounded_geo",
    "type": "park",
    "neighborhood": "golden-gate-heights",
    "lat": 37.7580106,
    "lon": -122.4727022,
    "description": ""
  },
  {
    "id": "green-hairstreak-corridor-mount-steps-access-point",
    "name": "Green Hairstreak Corridor - Mount Steps (access point)",
    "grounding": "grounded_geo",
    "type": "park",
    "neighborhood": "golden-gate-heights",
    "lat": 37.7542454,
    "lon": -122.471326,
    "description": ""
  },
  {
    "id": "green-hairstreak-corridor-quintara-steps",
    "name": "Green Hairstreak Corridor - Quintara Steps",
    "grounding": "grounded_geo",
    "type": "park",
    "neighborhood": "golden-gate-heights",
    "lat": 37.7488148,
    "lon": -122.471542,
    "description": ""
  },
  {
    "id": "greenies-conservation-corner",
    "name": "Greenie's Conservation Corner",
    "grounding": "grounded_geo",
    "type": "park",
    "neighborhood": "parkside",
    "lat": 37.7322306,
    "lon": -122.5026769,
    "description": ""
  },
  {
    "id": "gregangelo-museum",
    "name": "Gregangelo Museum",
    "grounding": "grounded_geo",
    "type": "attraction",
    "neighborhood": "saint-francis-wood",
    "lat": 37.7327027,
    "lon": -122.4684495,
    "description": ""
  },
  {
    "id": "guardians-of-the-gate-sea-lions-statue",
    "name": "Guardians of the Gate Sea Lions Statue",
    "grounding": "grounded_geo",
    "type": "artwork",
    "neighborhood": "north-beach",
    "lat": 37.8086819,
    "lon": -122.410767,
    "description": ""
  },
  {
    "id": "haight-ashbury-street",
    "name": "Haight & Ashbury Street",
    "grounding": "grounded_geo",
    "type": "landmark",
    "neighborhood": "haight-ashbury",
    "lat": 37.7693,
    "lon": -122.4469,
    "description": "The intersection — street sign tourists, head shops, Summer of Love memorial ground zero"
  },
  {
    "id": "hailey-malaika-olympia-clarke",
    "name": "Hailey Malaika Olympia Clarke",
    "grounding": "grounded_geo",
    "type": "gallery",
    "neighborhood": "lower-haight",
    "lat": 37.7723395,
    "lon": -122.4294183,
    "description": ""
  },
  {
    "id": "hall-of-fame-photo-collage",
    "name": "Hall of fame photo collage",
    "grounding": "grounded_geo",
    "type": "artwork",
    "neighborhood": "parkmerced",
    "lat": 37.7237776,
    "lon": -122.4780663,
    "description": ""
  },
  {
    "id": "harry-lundberg",
    "name": "Harry Lundberg",
    "grounding": "grounded_geo",
    "type": "artwork",
    "neighborhood": "rincon-hill",
    "lat": 37.7863432,
    "lon": -122.39296,
    "description": ""
  },
  {
    "id": "harvey-milk-plaza",
    "name": "Harvey Milk Plaza",
    "grounding": "grounded_geo",
    "type": "park",
    "neighborhood": "castro",
    "lat": 37.7622753,
    "lon": -122.4356915,
    "description": ""
  },
  {
    "id": "hashimoto-contemporary",
    "name": "Hashimoto Contemporary",
    "grounding": "grounded_geo",
    "type": "gallery",
    "neighborhood": "lower-nob-hill",
    "lat": 37.788679,
    "lon": -122.4138067,
    "description": ""
  },
  {
    "id": "hawk-hill",
    "name": "Hawk Hill",
    "grounding": "grounded_geo",
    "type": "viewpoint",
    "neighborhood": "seacliff",
    "lat": 37.8285523,
    "lon": -122.498775,
    "description": ""
  },
  {
    "id": "hayes-valley-playground",
    "name": "Hayes Valley Playground",
    "grounding": "grounded_geo",
    "type": "park",
    "neighborhood": "hayes-valley",
    "lat": 37.7760675,
    "lon": -122.4273831,
    "description": ""
  },
  {
    "id": "head-of-st-francis",
    "name": "Head of St. Francis",
    "grounding": "grounded_geo",
    "type": "artwork",
    "neighborhood": "parkmerced",
    "lat": 37.7222504,
    "lon": -122.4774327,
    "description": ""
  },
  {
    "id": "heaven-art-gallery",
    "name": "Heaven Art Gallery",
    "grounding": "grounded_geo",
    "type": "gallery",
    "neighborhood": "chinatown",
    "lat": 37.7911869,
    "lon": -122.4056061,
    "description": ""
  },
  {
    "id": "heights-i",
    "name": "Heights I",
    "grounding": "grounded_geo",
    "type": "artwork",
    "neighborhood": "inner-richmond",
    "lat": 37.7709173,
    "lon": -122.4694939,
    "description": ""
  },
  {
    "id": "helen-crocker-russell-horticultural-library",
    "name": "Helen Crocker Russell Horticultural Library",
    "grounding": "grounded_geo",
    "type": "library",
    "neighborhood": "inner-sunset",
    "lat": 37.766948,
    "lon": -122.467438,
    "description": ""
  },
  {
    "id": "helen-wills-park",
    "name": "Helen Wills Park",
    "grounding": "grounded_geo",
    "type": "park",
    "neighborhood": "nob-hill",
    "lat": 37.7957654,
    "lon": -122.420665,
    "description": ""
  },
  {
    "id": "herons-head-park",
    "name": "Heron's Head Park",
    "grounding": "grounded_geo",
    "type": "park",
    "neighborhood": "hunters-point",
    "lat": 37.7389422,
    "lon": -122.3722013,
    "description": ""
  },
  {
    "id": "herons-head-park-bird-blinds",
    "name": "Heron's Head Park Bird Blinds",
    "grounding": "grounded_geo",
    "type": "viewpoint",
    "neighborhood": "hunters-point",
    "lat": 37.7380988,
    "lon": -122.3729222,
    "description": ""
  },
  {
    "id": "hidden-bridge",
    "name": "Hidden Bridge",
    "grounding": "grounded_geo",
    "type": "attraction",
    "neighborhood": "portola",
    "lat": 37.7213634,
    "lon": -122.4146322,
    "description": ""
  },
  {
    "id": "hillpoint-park",
    "name": "Hillpoint Park",
    "grounding": "grounded_geo",
    "type": "park",
    "neighborhood": "hunters-point",
    "lat": 37.7269228,
    "lon": -122.3667904,
    "description": ""
  },
  {
    "id": "hills-bros-coffee-trademark",
    "name": "Hills Bros. Coffee Trademark",
    "grounding": "grounded_geo",
    "type": "artwork",
    "neighborhood": "rincon-hill",
    "lat": 37.7898234,
    "lon": -122.389483,
    "description": ""
  },
  {
    "id": "hilltop-east",
    "name": "Hilltop East",
    "grounding": "grounded_geo",
    "type": "park",
    "neighborhood": "embarcadero",
    "lat": 37.8101048,
    "lon": -122.3664586,
    "description": ""
  },
  {
    "id": "hilltop-park",
    "name": "Hilltop Park",
    "grounding": "grounded_geo",
    "type": "park",
    "neighborhood": "bayview",
    "lat": 37.732887,
    "lon": -122.3834937,
    "description": ""
  },
  {
    "id": "hilltop-park-sundial",
    "name": "Hilltop Park Sundial",
    "grounding": "grounded_geo",
    "type": "artwork",
    "neighborhood": "bayview",
    "lat": 37.7329217,
    "lon": -122.3838102,
    "description": ""
  },
  {
    "id": "hilltop-west",
    "name": "Hilltop West",
    "grounding": "grounded_geo",
    "type": "park",
    "neighborhood": "embarcadero",
    "lat": 37.8105465,
    "lon": -122.3687077,
    "description": ""
  },
  {
    "id": "hippie-hill",
    "name": "Hippie Hill",
    "grounding": "grounded_geo",
    "type": "park",
    "neighborhood": "haight-ashbury",
    "lat": 37.7698546,
    "lon": -122.457878,
    "description": ""
  },
  {
    "id": "hippocrates",
    "name": "Hippocrates",
    "grounding": "grounded_geo",
    "type": "artwork",
    "neighborhood": "inner-sunset",
    "lat": 37.7637282,
    "lon": -122.4575595,
    "description": ""
  },
  {
    "id": "holly-park",
    "name": "Holly Park",
    "grounding": "grounded_geo",
    "type": "park",
    "neighborhood": "bernal-heights",
    "lat": 37.7372127,
    "lon": -122.4199461,
    "description": ""
  },
  {
    "id": "hosfelt-gallery",
    "name": "Hosfelt Gallery",
    "grounding": "grounded_geo",
    "type": "gallery",
    "neighborhood": "potrero-hill",
    "lat": 37.7662634,
    "lon": -122.4068123,
    "description": ""
  },
  {
    "id": "house-of-seiko",
    "name": "House of Seiko",
    "grounding": "grounded_geo",
    "type": "gallery",
    "neighborhood": "the-mission",
    "lat": 37.7554569,
    "lon": -122.4169882,
    "description": ""
  },
  {
    "id": "hunters-point-community-youth-park",
    "name": "Hunters Point Community Youth Park",
    "grounding": "grounded_geo",
    "type": "park",
    "neighborhood": "bayview",
    "lat": 37.7341024,
    "lon": -122.3802517,
    "description": ""
  },
  {
    "id": "huntington-park",
    "name": "Huntington Park",
    "grounding": "grounded_geo",
    "type": "park",
    "neighborhood": "nob-hill",
    "lat": 37.7921736,
    "lon": -122.4121766,
    "description": ""
  },
  {
    "id": "i-have-a-dream-mural",
    "name": "I have a dream mural",
    "grounding": "grounded_geo",
    "type": "artwork",
    "neighborhood": "the-mission",
    "lat": 37.7555307,
    "lon": -122.4193456,
    "description": ""
  },
  {
    "id": "immigrant-point-overlook",
    "name": "Immigrant Point Overlook",
    "grounding": "grounded_geo",
    "type": "viewpoint",
    "neighborhood": "seacliff",
    "lat": 37.7961682,
    "lon": -122.477875,
    "description": ""
  },
  {
    "id": "in-chan-kaajal-park",
    "name": "In Chan Kaajal Park",
    "grounding": "grounded_geo",
    "type": "park",
    "neighborhood": "the-mission",
    "lat": 37.7639429,
    "lon": -122.4157591,
    "description": ""
  },
  {
    "id": "ina-coolbrith-park",
    "name": "Ina Coolbrith Park",
    "grounding": "grounded_geo",
    "type": "park",
    "neighborhood": "russian-hill",
    "lat": 37.7982265,
    "lon": -122.4132985,
    "description": ""
  },
  {
    "id": "inclusions-gallery",
    "name": "Inclusions Gallery",
    "grounding": "grounded_geo",
    "type": "gallery",
    "neighborhood": "bernal-heights",
    "lat": 37.7390513,
    "lon": -122.4154226,
    "description": ""
  },
  {
    "id": "india-basin-open-space",
    "name": "India Basin Open Space",
    "grounding": "grounded_geo",
    "type": "park",
    "neighborhood": "hunters-point",
    "lat": 37.7331255,
    "lon": -122.3720371,
    "description": ""
  },
  {
    "id": "india-basin-shoreline-park",
    "name": "India Basin Shoreline Park",
    "grounding": "grounded_geo",
    "type": "park",
    "neighborhood": "hunters-point",
    "lat": 37.7346606,
    "lon": -122.3759335,
    "description": ""
  },
  {
    "id": "indian-head-rock",
    "name": "Indian Head Rock",
    "grounding": "grounded_geo",
    "type": "viewpoint",
    "neighborhood": "little-hollywood",
    "lat": 37.7155771,
    "lon": -122.3957335,
    "description": ""
  },
  {
    "id": "ingleside-gallery",
    "name": "Ingleside Gallery",
    "grounding": "grounded_geo",
    "type": "gallery",
    "neighborhood": "ingleside",
    "lat": 37.7242021,
    "lon": -122.4584593,
    "description": ""
  },
  {
    "id": "inspiration-point",
    "name": "Inspiration Point",
    "grounding": "grounded_geo",
    "type": "viewpoint",
    "neighborhood": "presidio-terrace",
    "lat": 37.7922232,
    "lon": -122.4582622,
    "description": ""
  },
  {
    "id": "international-art-museum-of-america",
    "name": "International Art Museum of America",
    "grounding": "grounded_geo",
    "type": "museum",
    "neighborhood": "tenderloin",
    "lat": 37.7814568,
    "lon": -122.4107385,
    "description": ""
  },
  {
    "id": "internet-archive",
    "name": "Internet Archive",
    "grounding": "grounded_geo",
    "type": "library",
    "neighborhood": "inner-richmond",
    "lat": 37.7822888,
    "lon": -122.4715708,
    "description": ""
  },
  {
    "id": "internet-archive-scanning-center",
    "name": "Internet Archive Scanning Center",
    "grounding": "grounded_geo",
    "type": "library",
    "neighborhood": "inner-richmond",
    "lat": 37.7823742,
    "lon": -122.4714996,
    "description": ""
  },
  {
    "id": "invocation-statue",
    "name": "Invocation Statue",
    "grounding": "grounded_geo",
    "type": "artwork",
    "neighborhood": "portola",
    "lat": 37.729423,
    "lon": -122.409775,
    "description": ""
  },
  {
    "id": "islais-landing",
    "name": "Islais Landing",
    "grounding": "grounded_geo",
    "type": "park",
    "neighborhood": "potrero-terrace",
    "lat": 37.7467633,
    "lon": -122.3881044,
    "description": ""
  },
  {
    "id": "islands-of-the-pacific",
    "name": "Islands of the Pacific",
    "grounding": "grounded_geo",
    "type": "artwork",
    "neighborhood": "embarcadero",
    "lat": 37.8172564,
    "lon": -122.3710217,
    "description": ""
  },
  {
    "id": "j-p-murphy-playground",
    "name": "J.P. Murphy Playground",
    "grounding": "grounded_geo",
    "type": "park",
    "neighborhood": "forest-hill",
    "lat": 37.7517695,
    "lon": -122.4649159,
    "description": ""
  },
  {
    "id": "jack-early-park",
    "name": "Jack Early Park",
    "grounding": "grounded_geo",
    "type": "park",
    "neighborhood": "north-beach",
    "lat": 37.8048739,
    "lon": -122.4081699,
    "description": ""
  },
  {
    "id": "jackson-park",
    "name": "Jackson Park",
    "grounding": "grounded_geo",
    "type": "park",
    "neighborhood": "potrero-hill",
    "lat": 37.7643289,
    "lon": -122.3996264,
    "description": ""
  },
  {
    "id": "japan-town-peace-plaza",
    "name": "Japan Town Peace Plaza",
    "grounding": "grounded_geo",
    "type": "park",
    "neighborhood": "japantown",
    "lat": 37.7852196,
    "lon": -122.4297624,
    "description": ""
  },
  {
    "id": "japantown-peace-gallery",
    "name": "Japantown Peace Gallery",
    "grounding": "grounded_geo",
    "type": "museum",
    "neighborhood": "japantown",
    "lat": 37.7857378,
    "lon": -122.4294507,
    "description": ""
  },
  {
    "id": "java-dog-statue",
    "name": "Java Dog Statue",
    "grounding": "grounded_geo",
    "type": "artwork",
    "neighborhood": "parkside",
    "lat": 37.735475,
    "lon": -122.5029881,
    "description": ""
  },
  {
    "id": "jazz-mural",
    "name": "Jazz mural",
    "grounding": "grounded_geo",
    "type": "artwork",
    "neighborhood": "chinatown",
    "lat": 37.7979642,
    "lon": -122.4071204,
    "description": ""
  },
  {
    "id": "jefferson-square",
    "name": "Jefferson Square",
    "grounding": "grounded_geo",
    "type": "park",
    "neighborhood": "japantown",
    "lat": 37.7818032,
    "lon": -122.4256688,
    "description": ""
  },
  {
    "id": "jesse-owens",
    "name": "Jesse Owens",
    "grounding": "grounded_geo",
    "type": "artwork",
    "neighborhood": "jordan-park",
    "lat": 37.7771302,
    "lon": -122.4543986,
    "description": ""
  },
  {
    "id": "jessica-silverman",
    "name": "Jessica Silverman",
    "grounding": "grounded_geo",
    "type": "gallery",
    "neighborhood": "chinatown",
    "lat": 37.7928438,
    "lon": -122.4061396,
    "description": ""
  },
  {
    "id": "jimmy-hendrix-house",
    "name": "Jimmy Hendrix house",
    "grounding": "grounded_geo",
    "type": "attraction",
    "neighborhood": "haight-ashbury",
    "lat": 37.770058,
    "lon": -122.4474656,
    "description": ""
  },
  {
    "id": "joe-dimaggio-playground",
    "name": "Joe DiMaggio Playground",
    "grounding": "grounded_geo",
    "type": "park",
    "neighborhood": "north-beach",
    "lat": 37.802492,
    "lon": -122.4121593,
    "description": ""
  },
  {
    "id": "joe-henderson-lab",
    "name": "Joe Henderson Lab",
    "grounding": "grounded_geo",
    "type": "theatre",
    "neighborhood": "hayes-valley",
    "lat": 37.7765336,
    "lon": -122.4214196,
    "description": ""
  },
  {
    "id": "john-a-and-cynthia-fry-gunn-theater",
    "name": "John A. and Cynthia Fry Gunn Theater",
    "grounding": "grounded_geo",
    "type": "theatre",
    "neighborhood": "outer-richmond",
    "lat": 37.7843604,
    "lon": -122.5010214,
    "description": ""
  },
  {
    "id": "john-mclaren-park",
    "name": "John McLaren Park",
    "grounding": "grounded_geo",
    "type": "park",
    "neighborhood": "visitacion-valley",
    "lat": 37.7175539,
    "lon": -122.4181057,
    "description": ""
  },
  {
    "id": "john-pence-gallery",
    "name": "John Pence Gallery",
    "grounding": "grounded_geo",
    "type": "gallery",
    "neighborhood": "lower-nob-hill",
    "lat": 37.7877471,
    "lon": -122.4141586,
    "description": ""
  },
  {
    "id": "jonathan-carver-moore",
    "name": "Jonathan Carver Moore",
    "grounding": "grounded_geo",
    "type": "gallery",
    "neighborhood": "tenderloin",
    "lat": 37.7829786,
    "lon": -122.409737,
    "description": ""
  },
  {
    "id": "joseph-conrad-square",
    "name": "Joseph Conrad Square",
    "grounding": "grounded_geo",
    "type": "park",
    "neighborhood": "fishermans-wharf",
    "lat": 37.8066119,
    "lon": -122.4191372,
    "description": ""
  },
  {
    "id": "joseph-strauss-legacy-circle",
    "name": "Joseph Strauss Legacy Circle",
    "grounding": "grounded_geo",
    "type": "artwork",
    "neighborhood": "seacliff",
    "lat": 37.8079723,
    "lon": -122.475405,
    "description": ""
  },
  {
    "id": "juan-marichal-statue",
    "name": "Juan Marichal Statue",
    "grounding": "grounded_geo",
    "type": "artwork",
    "neighborhood": "south-beach",
    "lat": 37.7772761,
    "lon": -122.3904411,
    "description": ""
  },
  {
    "id": "juri-commons",
    "name": "Juri Commons",
    "grounding": "grounded_geo",
    "type": "park",
    "neighborhood": "noe-valley",
    "lat": 37.7495076,
    "lon": -122.4219537,
    "description": ""
  },
  {
    "id": "kelloch-velasco-park",
    "name": "Kelloch-Velasco Park",
    "grounding": "grounded_geo",
    "type": "park",
    "neighborhood": "visitacion-valley",
    "lat": 37.708542,
    "lon": -122.4131634,
    "description": ""
  },
  {
    "id": "kid-power-park",
    "name": "Kid Power Park",
    "grounding": "grounded_geo",
    "type": "park",
    "neighborhood": "the-mission",
    "lat": 37.7641656,
    "lon": -122.4202908,
    "description": ""
  },
  {
    "id": "kings-and-co",
    "name": "King's and Co.",
    "grounding": "grounded_geo",
    "type": "arts_centre",
    "neighborhood": "financial-district",
    "lat": 37.79171,
    "lon": -122.400719,
    "description": ""
  },
  {
    "id": "kite-hill-open-space",
    "name": "Kite Hill Open Space",
    "grounding": "grounded_geo",
    "type": "park",
    "neighborhood": "castro",
    "lat": 37.7583453,
    "lon": -122.4415858,
    "description": ""
  },
  {
    "id": "koret-quad",
    "name": "Koret Quad",
    "grounding": "grounded_geo",
    "type": "park",
    "neighborhood": "mission-bay",
    "lat": 37.7681667,
    "lon": -122.3918695,
    "description": ""
  },
  {
    "id": "koshland-park",
    "name": "Koshland Park",
    "grounding": "grounded_geo",
    "type": "park",
    "neighborhood": "hayes-valley",
    "lat": 37.7732544,
    "lon": -122.4267327,
    "description": ""
  },
  {
    "id": "love-blocks-by-misfit-toys",
    "name": "LOVE blocks, by Misfit Toys",
    "grounding": "grounded_geo",
    "type": "artwork",
    "neighborhood": "inner-sunset",
    "lat": 37.7716165,
    "lon": -122.4590386,
    "description": ""
  },
  {
    "id": "la-chiffonni-re",
    "name": "La Chiffonnière",
    "grounding": "grounded_geo",
    "type": "artwork",
    "neighborhood": "embarcadero",
    "lat": 37.7947438,
    "lon": -122.3951937,
    "description": ""
  },
  {
    "id": "la-maternit",
    "name": "La Maternité",
    "grounding": "grounded_geo",
    "type": "artwork",
    "neighborhood": "inner-richmond",
    "lat": 37.7709078,
    "lon": -122.4693615,
    "description": ""
  },
  {
    "id": "la-playa-park",
    "name": "La Playa Park",
    "grounding": "grounded_geo",
    "type": "park",
    "neighborhood": "outer-sunset",
    "lat": 37.7606267,
    "lon": -122.5093254,
    "description": ""
  },
  {
    "id": "la-rose-des-vents",
    "name": "La Rose des Vents",
    "grounding": "grounded_geo",
    "type": "artwork",
    "neighborhood": "inner-sunset",
    "lat": 37.7719881,
    "lon": -122.4601393,
    "description": ""
  },
  {
    "id": "labyrinthine-heart",
    "name": "Labyrinthine Heart",
    "grounding": "grounded_geo",
    "type": "artwork",
    "neighborhood": "union-square",
    "lat": 37.787729,
    "lon": -122.4068756,
    "description": ""
  },
  {
    "id": "lafayette-park",
    "name": "Lafayette Park",
    "grounding": "grounded_geo",
    "type": "park",
    "neighborhood": "pacific-heights",
    "lat": 37.7913,
    "lon": -122.4339,
    "description": "Sunken city block park, Pacific Heights living rooms overflow here, dogs, tennis courts"
  },
  {
    "id": "lake-merced-park",
    "name": "Lake Merced Park",
    "grounding": "grounded_geo",
    "type": "park",
    "neighborhood": "parkmerced",
    "lat": 37.7199319,
    "lon": -122.4934893,
    "description": ""
  },
  {
    "id": "lakeview-and-ashton-mini-park",
    "name": "Lakeview and Ashton Mini Park",
    "grounding": "grounded_geo",
    "type": "park",
    "neighborhood": "ocean-view",
    "lat": 37.7180817,
    "lon": -122.4626647,
    "description": ""
  },
  {
    "id": "lands-end",
    "name": "Lands End",
    "grounding": "grounded_geo",
    "type": "coastal",
    "neighborhood": "outer-richmond",
    "lat": 37.7803,
    "lon": -122.5134,
    "description": "Rugged coastal bluffs, labyrinth, shipwreck views, Sutro Baths ruins, GGNRA trail"
  },
  {
    "id": "lands-end-trail-eagles-point-916-el-camino-del-mar-san-francisco-ca-94121-usa",
    "name": "Lands End Trail Eagles Point, 916 El Camino Del Mar, San Francisco, CA 94121, USA",
    "grounding": "grounded_geo",
    "type": "viewpoint",
    "neighborhood": "seacliff",
    "lat": 37.7866951,
    "lon": -122.494827,
    "description": ""
  },
  {
    "id": "langton-labs",
    "name": "Langton Labs",
    "grounding": "grounded_geo",
    "type": "gallery",
    "neighborhood": "soma",
    "lat": 37.7770629,
    "lon": -122.4094384,
    "description": ""
  },
  {
    "id": "language-of-birds",
    "name": "Language of Birds",
    "grounding": "grounded_geo",
    "type": "artwork",
    "neighborhood": "chinatown",
    "lat": 37.7979601,
    "lon": -122.4070765,
    "description": ""
  },
  {
    "id": "large-four-piece-reclining-figure",
    "name": "Large Four Piece Reclining Figure",
    "grounding": "grounded_geo",
    "type": "artwork",
    "neighborhood": "civic-center",
    "lat": 37.7780771,
    "lon": -122.4201063,
    "description": ""
  },
  {
    "id": "larsen-park",
    "name": "Larsen Park",
    "grounding": "grounded_geo",
    "type": "park",
    "neighborhood": "west-portal",
    "lat": 37.7393058,
    "lon": -122.4760098,
    "description": ""
  },
  {
    "id": "laurel-hill-playground",
    "name": "Laurel Hill Playground",
    "grounding": "grounded_geo",
    "type": "park",
    "neighborhood": "jordan-park",
    "lat": 37.7839773,
    "lon": -122.4509441,
    "description": ""
  },
  {
    "id": "lessing-sears-mini-park",
    "name": "Lessing & Sears Mini Park",
    "grounding": "grounded_geo",
    "type": "park",
    "neighborhood": "ocean-view",
    "lat": 37.708645,
    "lon": -122.4553506,
    "description": ""
  },
  {
    "id": "letterform-archive",
    "name": "Letterform Archive",
    "grounding": "grounded_geo",
    "type": "museum",
    "neighborhood": "dogpatch",
    "lat": 37.7598247,
    "lon": -122.388244,
    "description": ""
  },
  {
    "id": "let-s-build-from-here",
    "name": "Let’s Build From Here",
    "grounding": "grounded_geo",
    "type": "artwork",
    "neighborhood": "union-square",
    "lat": 37.7853763,
    "lon": -122.4018333,
    "description": ""
  },
  {
    "id": "levis-plaza",
    "name": "Levi's Plaza",
    "grounding": "grounded_geo",
    "type": "park",
    "neighborhood": "north-beach",
    "lat": 37.8026552,
    "lon": -122.401338,
    "description": ""
  },
  {
    "id": "lightfold",
    "name": "Lightfold",
    "grounding": "grounded_geo",
    "type": "artwork",
    "neighborhood": "union-square",
    "lat": 37.7877691,
    "lon": -122.4040242,
    "description": ""
  },
  {
    "id": "lighting-sculpture",
    "name": "Lighting Sculpture",
    "grounding": "grounded_geo",
    "type": "artwork",
    "neighborhood": "lower-nob-hill",
    "lat": 37.7850345,
    "lon": -122.4213185,
    "description": ""
  },
  {
    "id": "limits-of-horizon-ii",
    "name": "Limits of Horizon II",
    "grounding": "grounded_geo",
    "type": "artwork",
    "neighborhood": "financial-district",
    "lat": 37.7954302,
    "lon": -122.3987805,
    "description": ""
  },
  {
    "id": "lincoln-park-steps",
    "name": "Lincoln Park Steps",
    "grounding": "grounded_geo",
    "type": "artwork",
    "neighborhood": "seacliff",
    "lat": 37.783517,
    "lon": -122.4936111,
    "description": ""
  },
  {
    "id": "lion",
    "name": "Lion",
    "grounding": "grounded_geo",
    "type": "artwork",
    "neighborhood": "inner-richmond",
    "lat": 37.7716764,
    "lon": -122.467386,
    "description": ""
  },
  {
    "id": "lionbull",
    "name": "Lionbull",
    "grounding": "grounded_geo",
    "type": "artwork",
    "neighborhood": "union-square",
    "lat": 37.7846973,
    "lon": -122.4031701,
    "description": ""
  },
  {
    "id": "little-hollywood-park",
    "name": "Little Hollywood Park",
    "grounding": "grounded_geo",
    "type": "park",
    "neighborhood": "little-hollywood",
    "lat": 37.7099855,
    "lon": -122.3981991,
    "description": ""
  },
  {
    "id": "little-marina-green",
    "name": "Little Marina Green",
    "grounding": "grounded_geo",
    "type": "park",
    "neighborhood": "marina",
    "lat": 37.8058032,
    "lon": -122.4478999,
    "description": ""
  },
  {
    "id": "little-puffer-steam-train-depot",
    "name": "Little Puffer Steam Train Depot",
    "grounding": "grounded_geo",
    "type": "attraction",
    "neighborhood": "parkside",
    "lat": 37.7332281,
    "lon": -122.500254,
    "description": ""
  },
  {
    "id": "little-saigon-2-lions",
    "name": "Little Saigon: 2 lions",
    "grounding": "grounded_geo",
    "type": "artwork",
    "neighborhood": "tenderloin",
    "lat": 37.7834523,
    "lon": -122.4176583,
    "description": ""
  },
  {
    "id": "live",
    "name": "Live",
    "grounding": "grounded_geo",
    "type": "artwork",
    "neighborhood": "inner-richmond",
    "lat": 37.7721239,
    "lon": -122.4633244,
    "description": ""
  },
  {
    "id": "local-color",
    "name": "Local Color",
    "grounding": "grounded_geo",
    "type": "artwork",
    "neighborhood": "rincon-hill",
    "lat": 37.7865023,
    "lon": -122.3996317,
    "description": ""
  },
  {
    "id": "locks-and-keys-for-harry-bridges",
    "name": "Locks and Keys for Harry Bridges",
    "grounding": "grounded_geo",
    "type": "artwork",
    "neighborhood": "union-square",
    "lat": 37.7868669,
    "lon": -122.4032364,
    "description": ""
  },
  {
    "id": "lombard-street",
    "name": "Lombard Street",
    "grounding": "grounded_geo",
    "type": "attraction",
    "neighborhood": "russian-hill",
    "lat": 37.8021196,
    "lon": -122.418716,
    "description": ""
  },
  {
    "id": "los-lobos-de-loyola",
    "name": "Los Lobos de Loyola",
    "grounding": "grounded_geo",
    "type": "artwork",
    "neighborhood": "north-of-panhandle",
    "lat": 37.7762725,
    "lon": -122.451883,
    "description": ""
  },
  {
    "id": "louis-pasteur",
    "name": "Louis Pasteur",
    "grounding": "grounded_geo",
    "type": "artwork",
    "neighborhood": "inner-richmond",
    "lat": 37.7799969,
    "lon": -122.4636658,
    "description": ""
  },
  {
    "id": "lovers-rock",
    "name": "Lover's Rock",
    "grounding": "grounded_geo",
    "type": "attraction",
    "neighborhood": "excelsior",
    "lat": 37.7139428,
    "lon": -122.4254366,
    "description": ""
  },
  {
    "id": "luggage-store-gallery",
    "name": "Luggage Store Gallery",
    "grounding": "grounded_geo",
    "type": "gallery",
    "neighborhood": "tenderloin",
    "lat": 37.781934,
    "lon": -122.4103655,
    "description": ""
  },
  {
    "id": "lynette-nicole-betancur",
    "name": "Lynette Nicole Betancur",
    "grounding": "grounded_geo",
    "type": "gallery",
    "neighborhood": "south-beach",
    "lat": 37.7777272,
    "lon": -122.3928097,
    "description": ""
  },
  {
    "id": "lyon-steps",
    "name": "Lyon Steps",
    "grounding": "grounded_geo",
    "type": "viewpoint",
    "neighborhood": "presidio-heights",
    "lat": 37.7928413,
    "lon": -122.4464871,
    "description": ""
  },
  {
    "id": "mural-2",
    "name": "MURAL 2",
    "grounding": "grounded_geo",
    "type": "artwork",
    "neighborhood": "the-mission",
    "lat": 37.7629941,
    "lon": -122.4208197,
    "description": ""
  },
  {
    "id": "made-in-san-francisco",
    "name": "Made in San Francisco",
    "grounding": "grounded_geo",
    "type": "gallery",
    "neighborhood": "fishermans-wharf",
    "lat": 37.8083805,
    "lon": -122.4136609,
    "description": ""
  },
  {
    "id": "madonna",
    "name": "Madonna",
    "grounding": "grounded_geo",
    "type": "artwork",
    "neighborhood": "marina",
    "lat": 37.8060889,
    "lon": -122.429346,
    "description": ""
  },
  {
    "id": "magowans-infinite-mirror-maze",
    "name": "Magowan's Infinite Mirror Maze",
    "grounding": "grounded_geo",
    "type": "attraction",
    "neighborhood": "north-beach",
    "lat": 37.8101138,
    "lon": -122.4103257,
    "description": ""
  },
  {
    "id": "making-the-world-many",
    "name": "Making the World Many",
    "grounding": "grounded_geo",
    "type": "artwork",
    "neighborhood": "rincon-hill",
    "lat": 37.7861651,
    "lon": -122.3972845,
    "description": ""
  },
  {
    "id": "mandalay-lane-park",
    "name": "Mandalay Lane Park",
    "grounding": "grounded_geo",
    "type": "park",
    "neighborhood": "golden-gate-heights",
    "lat": 37.7507231,
    "lon": -122.4714214,
    "description": ""
  },
  {
    "id": "maracuja-gallery",
    "name": "Maracuja Gallery",
    "grounding": "grounded_geo",
    "type": "gallery",
    "neighborhood": "potrero-hill",
    "lat": 37.7584019,
    "lon": -122.3949711,
    "description": ""
  },
  {
    "id": "margaret-s-hayward-playground",
    "name": "Margaret S. Hayward Playground",
    "grounding": "grounded_geo",
    "type": "park",
    "neighborhood": "hayes-valley",
    "lat": 37.780873,
    "lon": -122.4254976,
    "description": ""
  },
  {
    "id": "marietta-green-space",
    "name": "Marietta Green Space",
    "grounding": "grounded_geo",
    "type": "park",
    "neighborhood": "diamond-heights",
    "lat": 37.7416561,
    "lon": -122.4487997,
    "description": ""
  },
  {
    "id": "marina-green",
    "name": "Marina Green",
    "grounding": "grounded_geo",
    "type": "park",
    "neighborhood": "marina",
    "lat": 37.8065987,
    "lon": -122.439129,
    "description": ""
  },
  {
    "id": "marines-memorial-theater",
    "name": "Marine's Memorial Theater",
    "grounding": "grounded_geo",
    "type": "theatre",
    "neighborhood": "union-square",
    "lat": 37.788892,
    "lon": -122.4105288,
    "description": ""
  },
  {
    "id": "marini-plaza",
    "name": "Marini Plaza",
    "grounding": "grounded_geo",
    "type": "park",
    "neighborhood": "north-beach",
    "lat": 37.8004625,
    "lon": -122.4106512,
    "description": ""
  },
  {
    "id": "mariposa-park",
    "name": "Mariposa Park",
    "grounding": "grounded_geo",
    "type": "park",
    "neighborhood": "pier-70",
    "lat": 37.7646208,
    "lon": -122.3915526,
    "description": ""
  },
  {
    "id": "maritime-research-center",
    "name": "Maritime Research Center",
    "grounding": "grounded_geo",
    "type": "library",
    "neighborhood": "marina",
    "lat": 37.8069312,
    "lon": -122.430486,
    "description": ""
  },
  {
    "id": "mary-ellen-pleasant-memorial-park",
    "name": "Mary Ellen Pleasant Memorial Park",
    "grounding": "grounded_geo",
    "type": "park",
    "neighborhood": "japantown",
    "lat": 37.787538,
    "lon": -122.4269192,
    "description": ""
  },
  {
    "id": "matter-of-trust-eco-home",
    "name": "Matter of Trust Eco-Home",
    "grounding": "grounded_geo",
    "type": "attraction",
    "neighborhood": "haight-ashbury",
    "lat": 37.7677347,
    "lon": -122.4501479,
    "description": ""
  },
  {
    "id": "maybaum-gallery",
    "name": "Maybaum Gallery",
    "grounding": "grounded_geo",
    "type": "gallery",
    "neighborhood": "union-square",
    "lat": 37.7864768,
    "lon": -122.4062,
    "description": ""
  },
  {
    "id": "mccoppin-hub",
    "name": "McCoppin Hub",
    "grounding": "grounded_geo",
    "type": "park",
    "neighborhood": "hayes-valley",
    "lat": 37.7715589,
    "lon": -122.4228652,
    "description": ""
  },
  {
    "id": "mccoppin-square",
    "name": "McCoppin Square",
    "grounding": "grounded_geo",
    "type": "park",
    "neighborhood": "parkside",
    "lat": 37.7438082,
    "lon": -122.4800818,
    "description": ""
  },
  {
    "id": "mckinley-square",
    "name": "McKinley Square",
    "grounding": "grounded_geo",
    "type": "park",
    "neighborhood": "potrero-hill",
    "lat": 37.7589605,
    "lon": -122.4047716,
    "description": ""
  },
  {
    "id": "mclaren-park",
    "name": "McLaren Park",
    "grounding": "grounded_geo",
    "type": "park",
    "neighborhood": "excelsior",
    "lat": 37.7205,
    "lon": -122.4236,
    "description": "Second-largest park in SF, overlooked by tourists, community gathering, hiking, disc golf"
  },
  {
    "id": "mechanics-institute-library-and-chess-room",
    "name": "Mechanics' Institute Library and Chess Room",
    "grounding": "grounded_geo",
    "type": "library",
    "neighborhood": "union-square",
    "lat": 37.7888454,
    "lon": -122.403035,
    "description": ""
  },
  {
    "id": "merced-heights-playground",
    "name": "Merced Heights Playground",
    "grounding": "grounded_geo",
    "type": "park",
    "neighborhood": "parkmerced",
    "lat": 37.7175067,
    "lon": -122.4702815,
    "description": ""
  },
  {
    "id": "merci-mercy-the-colors-of-cancer",
    "name": "Merci Mercy: The Colors of Cancer",
    "grounding": "grounded_geo",
    "type": "artwork",
    "neighborhood": "haight-ashbury",
    "lat": 37.7732565,
    "lon": -122.4535447,
    "description": ""
  },
  {
    "id": "michelangelo-playground",
    "name": "Michelangelo Playground",
    "grounding": "grounded_geo",
    "type": "park",
    "neighborhood": "russian-hill",
    "lat": 37.801107,
    "lon": -122.4169145,
    "description": ""
  },