[
  {
    "id": "alamo-square-park",
    "name": "Alamo Square Park",
    "grounding": "grounded_geo",
    "type": "park",
    "neighborhood": "alamo-square",
    "lat": 37.7762,
    "lon": -122.4346,
    "description": "The Painted Ladies panorama, steep hill, Victorian row houses, popular with tourists and dog walkers"
  },
  {
    "id": "alcatraz-island",
    "name": "Alcatraz Island",
    "grounding": "grounded_geo",
    "type": "historic",
    "neighborhood": "fishermans-wharf",
    "lat": 37.8267,
    "lon": -122.423,
    "description": "Former federal penitentiary, ferry from Pier 33, bay views, seabirds"
  },
  {
    "id": "aquatic-park",
    "name": "Aquatic Park",
    "grounding": "grounded_geo",
    "type": "waterfront",
    "neighborhood": "fisherman-s-wharf",
    "lat": 37.8087,
    "lon": -122.4237,
    "description": "Protected cove, cold-water swimmers, bocce ball, Maritime Museum, cable car terminus nearby"
  },
  {
    "id": "baker-beach",
    "name": "Baker Beach",
    "grounding": "grounded_geo",
    "type": "beach",
    "neighborhood": "outer-richmond",
    "lat": 37.7936,
    "lon": -122.4836,
    "description": "Clothing-optional beach with Golden Gate Bridge backdrop, Marin Headlands view"
  },
  {
    "id": "bernal-heights-park",
    "name": "Bernal Heights Park",
    "grounding": "grounded_geo",
    "type": "park",
    "neighborhood": "bernal-heights",
    "lat": 37.7413,
    "lon": -122.4155,
    "description": "Summit park with 360° views, dogs off-leash all over the hill, radio tower, beloved by locals"
  },
  {
    "id": "buena-vista-park",
    "name": "Buena Vista Park",
    "grounding": "grounded_geo",
    "type": "park",
    "neighborhood": "haight-ashbury",
    "lat": 37.77,
    "lon": -122.4428,
    "description": "Forested hilltop park, oldest park in SF, overgrown trails, panoramic views, cruising history"
  },
  {
    "id": "california-academy-of-sciences",
    "name": "California Academy of Sciences",
    "grounding": "grounded_geo",
    "type": "museum",
    "neighborhood": "inner-sunset",
    "lat": 37.7699,
    "lon": -122.4661,
    "description": "Natural history — living roof, aquarium, planetarium, rainforest dome, all under one roof in GG Park"
  },
  {
    "id": "city-hall",
    "name": "City Hall",
    "grounding": "grounded_geo",
    "type": "civic",
    "neighborhood": "civic-center",
    "lat": 37.7793,
    "lon": -122.4193,
    "description": "Gilded dome (taller than DC's Capitol), Harvey Milk was shot here, civic events"
  },
  {
    "id": "coit-tower",
    "name": "Coit Tower",
    "grounding": "grounded_geo",
    "type": "monument",
    "neighborhood": "north-beach",
    "lat": 37.8024,
    "lon": -122.4058,
    "description": "WPA murals inside, Telegraph Hill views, feral parrots, steps from North Beach"
  },
  {
    "id": "crissy-field",
    "name": "Crissy Field",
    "grounding": "grounded_geo",
    "type": "waterfront",
    "neighborhood": "marina",
    "lat": 37.8038,
    "lon": -122.462,
    "description": "Restored tidal marsh and beach along the bay, Golden Gate views, cyclists, dog walkers, kite fliers"
  },
  {
    "id": "dolores-park",
    "name": "Dolores Park",
    "grounding": "grounded_geo",
    "type": "park",
    "neighborhood": "the-mission",
    "lat": 37.7596,
    "lon": -122.4269,
    "description": "Mission's social hub — picnics, views of downtown, Castro on one side, J-Church streetcar"
  },
  {
    "id": "duboce-park",
    "name": "Duboce Park",
    "grounding": "grounded_geo",
    "type": "park",
    "neighborhood": "lower-haight",
    "lat": 37.7693,
    "lon": -122.4328,
    "description": "Popular dog park, N-Judah streetcar passes alongside, Duboce Triangle neighborhood"
  },
  {
    "id": "embarcadero-waterfront",
    "name": "Embarcadero Waterfront",
    "grounding": "grounded_geo",
    "type": "waterfront",
    "neighborhood": "embarcadero",
    "lat": 37.7955,
    "lon": -122.394,
    "description": "Ferry Building to Bay Bridge — promenade, farmers market, bay views, tourist ferries"
  },
  {
    "id": "ferry-building",
    "name": "Ferry Building",
    "grounding": "grounded_geo",
    "type": "market",
    "neighborhood": "embarcadero",
    "lat": 37.7955,
    "lon": -122.3937,
    "description": "1898 Beaux-Arts terminal, Saturday farmers market, artisan food vendors, bay views"
  },
  {
    "id": "fillmore-auditorium",
    "name": "Fillmore Auditorium",
    "grounding": "grounded_geo",
    "type": "venue",
    "neighborhood": "fillmore",
    "lat": 37.7843,
    "lon": -122.4326,
    "description": "Legendary music venue, posters are part of the mythology, shaped SF rock history"
  },
  {
    "id": "fort-mason",
    "name": "Fort Mason",
    "grounding": "grounded_geo",
    "type": "cultural",
    "neighborhood": "marina",
    "lat": 37.8061,
    "lon": -122.4319,
    "description": "WWII port turned cultural center — SFMOMA rental, farmer markets, theater, Bay views"
  },
  {
    "id": "glen-canyon-park",
    "name": "Glen Canyon Park",
    "grounding": "grounded_geo",
    "type": "park",
    "neighborhood": "glen-park",
    "lat": 37.738,
    "lon": -122.4413,
    "description": "Wild canyon in the middle of the city, creek, native plants, neighborhood dogs"
  },
  {
    "id": "golden-gate-park",
    "name": "Golden Gate Park",
    "grounding": "grounded_geo",
    "type": "park",
    "neighborhood": "inner-sunset",
    "lat": 37.7694,
    "lon": -122.4862,
    "description": "1,017-acre urban park — de Young museum, Japanese Tea Garden, Conservatory of Flowers, bison paddock, dutch windmills, Polo Field"
  },
  {
    "id": "haight-ashbury-street",
    "name": "Haight & Ashbury Street",
    "grounding": "grounded_geo",
    "type": "landmark",
    "neighborhood": "haight-ashbury",
    "lat": 37.7693,
    "lon": -122.4469,
    "description": "The intersection — street sign tourists, head shops, Summer of Love memorial ground zero"
  },
  {
    "id": "lafayette-park",
    "name": "Lafayette Park",
    "grounding": "grounded_geo",
    "type": "park",
    "neighborhood": "pacific-heights",
    "lat": 37.7913,
    "lon": -122.4339,
    "description": "Sunken city block park, Pacific Heights living rooms overflow here, dogs, tennis courts"
  },
  {
    "id": "lands-end",
    "name": "Lands End",
    "grounding": "grounded_geo",
    "type": "coastal",
    "neighborhood": "outer-richmond",
    "lat": 37.7803,
    "lon": -122.5134,
    "description": "Rugged coastal bluffs, labyrinth, shipwreck views, Sutro Baths ruins, GGNRA trail"
  },
  {
    "id": "mclaren-park",
    "name": "McLaren Park",
    "grounding": "grounded_geo",
    "type": "park",
    "neighborhood": "excelsior",
    "lat": 37.7205,
    "lon": -122.4236,
    "description": "Second-largest park in SF, overlooked by tourists, community gathering, hiking, disc golf"
  },
  {
    "id": "ocean-beach",
    "name": "Ocean Beach",
    "grounding": "grounded_geo",
    "type": "beach",
    "neighborhood": "outer-sunset",
    "lat": 37.7583,
    "lon": -122.51,
    "description": "Wild Pacific shore — strong undertow, surfers in wetsuits, bonfires at night, foggy and windswept"
  },
  {
    "id": "palace-of-fine-arts",
    "name": "Palace of Fine Arts",
    "grounding": "grounded_geo",
    "type": "monument",
    "neighborhood": "marina",
    "lat": 37.8029,
    "lon": -122.4484,
    "description": "Roman rotunda and colonnade reflected in a lagoon, swans, wedding photos, the Marina's jewel"
  },
  {
    "id": "precita-eyes-murals",
    "name": "Precita Eyes Murals",
    "grounding": "grounded_geo",
    "type": "art",
    "neighborhood": "bernal-heights",
    "lat": 37.7501,
    "lon": -122.4138,
    "description": "Mission mural tradition radiating from Precita Park, community art tours"
  },
  {
    "id": "sfmoma",
    "name": "SFMOMA",
    "grounding": "grounded_geo",
    "type": "museum",
    "neighborhood": "soma",
    "lat": 37.7857,
    "lon": -122.4006,
    "description": "Modern art anchor of SoMa, expanded Snøhetta wing, free to walk through ground floor"
  },
  {
    "id": "sutro-baths",
    "name": "Sutro Baths",
    "grounding": "grounded_geo",
    "type": "ruin",
    "neighborhood": "outer-richmond",
    "lat": 37.78,
    "lon": -122.5133,
    "description": "1896 glass-enclosed baths ruins, now a tidal pool at low tide, atmospheric"
  },
  {
    "id": "tartine-manufactory",
    "name": "Tartine Manufactory",
    "grounding": "grounded_geo",
    "type": "food",
    "neighborhood": "the-mission",
    "lat": 37.7591,
    "lon": -122.4134,
    "description": "The bread line that defines the Mission's food culture — sourdough, pastries, coffee"
  },
  {
    "id": "twin-peaks",
    "name": "Twin Peaks",
    "grounding": "grounded_geo",
    "type": "viewpoint",
    "neighborhood": "twin-peaks",
    "lat": 37.7512,
    "lon": -122.4477,
    "description": "Two 922-foot summits, panoramic 360° city view, tourist overlook and local hiking"
  },
  {
    "id": "de-young-museum",
    "name": "de Young Museum",
    "grounding": "grounded_geo",
    "type": "museum",
    "neighborhood": "inner-sunset",
    "lat": 37.7714,
    "lon": -122.4686,
    "description": "Fine arts, American art, textiles, tower with free views over GG Park, Golden Gate Bridge"
  }
]